id,region,county,area,beach_name,beach_url,address,city,state,zip,latitude,longitude,park_name,owner,owner_url,activities,amenities,pet_policy,pets_allowed,fees,free_parking,phone,other_names
4737,Central,Monterey,Pacific Grove,Spanish Bay Beach,https://www.californiabeaches.com/beach/spanish-bay-beach/,1955 Sunset Dr,Pacific,CA,93950,36.615819,-121.943513,Asilomar State Beach,City Beach,http://www.pebblebeach.com/,"Surfing, Walking, Sunbathing","Boardwalk, Trails, Dunes",No dogs allowed on the beach,N,Free parking along Sunset Drive,Y,"",""
4738,Central,Monterey,Pebble Beach,Bird Rock Beach 2,https://www.californiabeaches.com/beach/bird-rock-beach-2/,17 Mile Dr and Bird Rock Rd,Pebble,CA,93953,36.594534,-121.961788,"",Public,http://www.pebblebeach.com/,"Birdwatching, Picnicking, Walking","Picnic Tables, Restrooms, Walking Path, Tide Pools",No dogs allowed on the beach,N,Fee for entrance into Pebble Beach community,N,"",""
4739,Central,Monterey,Pebble Beach,Fanshell Beach,https://www.californiabeaches.com/beach/fanshell-beach/,3141 17 Mile Dr,Pebble,CA,93953,36.58224,-121.967978,"",City Beach,http://www.pebblebeach.com/,"Picnicking, Wildlife Watching, Birdwatching","Tide Pools, No Facilities",No dogs allowed on the beach,N,Fee for entrance into Pebble Beach community,N,"",Fan Shell Beach
4740,Central,Monterey,Pebble Beach,Moss Beach,https://www.californiabeaches.com/beach/moss-beach/,17 Mile Dr and Spanish Bay Rd,Pebble,CA,93953,36.609798,-121.948653,"",Public,http://www.pebblebeach.com/,"Picnicking, Walking","Picnic Tables, Boardwalk, Tide Pools",No dogs allowed on the beach,N,Fee for entrance into Pebble Beach community,N,"",""
4741,Central,Monterey,Pebble Beach,Seal Rock Creek Beach,https://www.californiabeaches.com/beach/seal-rock-creek-beach/,17 Mile Dr and Bird Rock Rd,Pebble,CA,93953,36.589525,-121.963579,"",Public,http://www.pebblebeach.com/,"Picnicking, Birdwatching","Trails, Restrooms, Picnic Tables, Tide Pools",No dogs allowed on the beach,N,Fee for entrance into Pebble Beach community,N,"",""
4742,Central,Monterey,Pebble Beach,Spanish Bay Beach,https://www.californiabeaches.com/beach/spanish-bay-beach/,1955 Sunset Dr,Pacific,CA,93950,36.615819,-121.943513,Asilomar State Beach,City Beach,http://www.pebblebeach.com/,"Surfing, Walking, Sunbathing","Boardwalk, Trails, Dunes",No dogs allowed on the beach,N,Free parking along Sunset Drive,Y,"",""
4743,Central,Monterey,Pebble Beach,Stillwater Cove Beach,https://www.californiabeaches.com/beach/stillwater-cove-beach/,1576 Cypress Dr,Pebble,CA,93953,36.565881,-121.941083,"",Public,http://www.pebblebeach.com/,"Kayaking, Scuba Diving, Boating",Restrooms,No dogs allowed on the beach,N,Fee for entrance into Pebble Beach community,N,"",""
4744,Central,Monterey,Sand City,Sand City Beach,https://www.californiabeaches.com/beach/sand-city-beach/,905 Playa Ave,Sand,CA,93955,36.621846,-121.848067,Eolian Dunes Preserve,City,http://www.mprpd.org/index.cfm/id/14/Eolian-Dunes-Preserve/,"Beachcombing, Biking, Skating, Hiking, Beach Walking","Dunes, Trails, Seaglass, No Facilities",Dogs allowed on leash,Y,Free parking,Y,"",Sand City Municipal Beach
4745,Central,Monterey,Sand City,The Crater Beach,https://www.californiabeaches.com/beach/the-crater-beach/,California Ave and Cabrillo Hwy,Sand,CA,93955,36.62626,-121.843649,"",City,"","Beachcombing, Sunbathing","Paved Bike Path, Dunes, No Facilities",Dogs allowed on leash,Y,Free parking at the mall,Y,"",""
4746,Central,Monterey,Seaside,Monterey State Beach Roberts Beach,https://www.californiabeaches.com/beach/monterey-state-beach-roberts-beach/,2600 Sand Dunes Dr,Monterey,CA,93940,36.6097,-121.86147,Monterey State Beach,State Park,http://www.parks.ca.gov/?page_id=576,"Biking, Skating, Scuba Diving, Surfing, Tidepooling, Fishing, Beachcombing, Beach Walking, Bodyboarding","Tide Pools, Dunes, Paved Bike Path, Toilets",Dogs on leash are allowed at Monterey State Beach south of the resort hotel,Y,Free parking,Y,"","Houghten M. Roberts Beach, Sand Dunes Drive Beach"
4747,Central,Monterey,Seaside,Monterey State Beach Seaside Beach,https://www.californiabeaches.com/beach/monterey-state-beach-seaside-beach/,Canyon Del Rey Blvd and Sand Dunes Dr,Seaside,CA,93940,36.613185,-121.85711,Monterey State Beach,State Park,http://www.parks.ca.gov/?page_id=576,"Biking, Skating, Beachcombing, Beach Walking, Surfing, Bodyboarding","Lifeguard, Toilets, Dunes, Paved Bike Path",No dogs allowed on the beach,N,Free parking,Y,"",""
4748,Central,Santa Cruz,Aptos,Beer Can Beach,https://www.californiabeaches.com/beach/beer-can-beach/,1094 Via Palo Alto,Aptos,CA,95003,36.95334,-121.88397,"",County,"","Sunbathing, Beach Walking, Surfing","Train Trestle, No Facilities",Dogs allowed on leash,Y,Free parking,Y,"","Dolphin & Sumner Beach, Palo Alto Beach Access"
4749,Central,Santa Cruz,Aptos,Hidden Beach Park,https://www.californiabeaches.com/beach/hidden-beach-park/,660 Cliff Dr,Aptos,CA,95003,36.95804,-121.88958,Hidden Beach Park,County,http://www.scparks.com/Home/Parks/ListofAllCountyParks/HiddenBeachPark.aspx,"Picnicking, Beach Walking, Sunbathing, Bodyboarding","Grass Park, Kids Play Area, Restrooms, Picnic Tables, Toilets",Dogs allowed on leash,Y,Free parking,Y,"",""
4750,Central,Santa Cruz,Aptos,Pot Belly Beach,https://www.californiabeaches.com/beach/pot-belly-beach/,McGregor Dr and New Brighton Rd,Aptos,CA,95003,36.977496,-121.929116,"",State Park,http://www.parks.ca.gov/?page_id=542,"Hiking, Beach Walking","Trails, No Facilities",Dogs allowed on leash,Y,"",N,"",Potbelly Beach
4751,Central,Santa Cruz,Aptos,Rio Del Mar Beach,https://www.californiabeaches.com/beach/rio-del-mar-beach/,131 Esplanade,Aptos,CA,95003,36.96806,-121.9053,Seacliff State Beach,State,http://www.parks.ca.gov/?page_id=543,"Sunbathing, Fishing, Picnicking, Swimming, Beach Walking","Fishing Pier, Restrooms, Showers, Historic Ship, Lifeguards, Benches",Dogs allowed on leash,Y,Fee for parking,N,"",""
4752,Central,Santa Cruz,Aptos,Seacliff State Beach,https://www.californiabeaches.com/beach/seacliff-state-beach/,State Park Dr and Santa Cruz Ave,Aptos,CA,95003,36.971641,-121.913283,Seacliff State Beach,State Park,http://www.parks.ca.gov/?page_id=543,"Fishing, Swimming, Sunbathing, Camping, Picnicking, Beach Walking","Campground, Fishing Pier, Historic Ship, Restrooms, Showers, Lifeguards, Picnic Tables, BBQs, Covered Picnic Areas, Cafe, Accessible Features",Dogs allowed on leash,Y,Fee for parking,N,"",""
4753,Central,Santa Cruz,Aptos,Seascape Park Beach,https://www.californiabeaches.com/beach/seascape-park-beach/,Seascape Blvd and Sumner Ave,Aptos,CA,95003,36.946949,-121.876523,Seascape Park,County,http://www.scparks.com/Home/Parks/ListofAllCountyParks/SeascapePark.aspx,"Walking, Picnicking","Grass Park, Trails, Benches, Picnic Tables, Restrooms, Kids Play Area",Dogs allowed on leash,Y,Free parking,Y,"",""
4754,Central,Santa Cruz,Capitola,Capitola Beach,https://www.californiabeaches.com/beach/capitola-beach/,San Jose Ave and Esplanade,Capitola,CA,95010,36.97153,-121.951273,"",City,"","Volleyball, Fishing, Sunbathing, Birdwatching, Surfing","Fishing Pier, Volleyball Courts, Lifeguard, Restrooms, Showers, Shops, Creek, Restaurants, Benches",No dogs allowed on the beach,N,Metered street parking,N,"",""
4661,Central,San Luis Obispo,San Simeon,Little Pico Creek Beach Access,https://www.californiabeaches.com/beach/little-pico-creek-beach-access/,Cabrillo Hwy,San,CA,93452,35.63353,-121.16423,Hearst San Simeon State Park,State Park,http://www.parks.ca.gov/?page_id=590,Beach Exploration,No Facilities,No dogs allowed on the beach,N,Free parking,Y,"",""
4755,Central,Santa Cruz,Capitola,Hooper Beach,https://www.californiabeaches.com/beach/hooper-beach/,Cliff Dr and Wharf Rd,Capitola,CA,95010,36.970963,-121.953992,"",City,"","Dog Walking, Birdwatching, Fishing",Fishing Pier,Dogs allowed off leash on west side of pier only,Y,Metered street parking,N,"",Hooper's
4756,Central,Santa Cruz,Capitola,New Brighton State Beach,https://www.californiabeaches.com/beach/new-brighton-state-beach/,Park Ave and McGregor Dr,Capitola,CA,95010,36.978458,-121.936025,New Brighton State Beach,State Park,http://www.parks.ca.gov/?page_id=542,"Fishing, Swimming, Camping, Hiking, Beach Walking, Bonfires","Campground, Trails, Restrooms, Picnic Tables, Fire Pits, Accessible Features",Dogs allowed on leash,Y,Fee for parking and camping,N,"",China Beach
4757,Central,Santa Cruz,Davenport,Big Creek Beach,https://www.californiabeaches.com/beach/big-creek-beach/,3564 Highway 1,Davenport,CA,95017,37.08731,-122.27392,"",State,"","Surfing, Tidepooling, Beach Walking, Beachcombing","Tide Pools, No Facilities",No dogs allowed on the beach,N,Free parking,Y,"","Waddell Reefs, Las Trancas Beach"
4758,Central,Santa Cruz,Davenport,Bonny Doon Beach,https://www.californiabeaches.com/beach/bonny-doon-beach/,Cabrillo Hwy and Bonny Doon Rd,Santa,CA,95060,37.000239,-122.181737,"Coast Dairies State Park, Bonny Doon State Beach",State Parks,"","Sunbathing, Photography","Dunes, Trails, No Facilities",No dogs allowed on the beach,N,Free parking,Y,"",""
4759,Central,Santa Cruz,Davenport,Davenport Beach,https://www.californiabeaches.com/beach/davenport-beach/,Cabrillo Hwy and Ocean St,Davenport,CA,95017,37.008829,-122.192943,Coast Dairies State Park,State Parks,"","Photography, Sunbathing, Beach Exploration, Caves","Tide Pools, Tunnel, No Facilities",Dogs allowed on leash,Y,Free parking,Y,"",San Vicente Beach
4760,Central,Santa Cruz,Davenport,Davenport Cove Beach,https://www.californiabeaches.com/beach/davenport-cove-beach/,Cabrillo Hwy,Davenport,CA,95017,37.004115,-122.185379,Coast Dairies State Park,State Parks,"","Walking, Photography, Beach Exploration","Trails, Rock Arch, Caves, No Facilities",No dogs allowed,N,Free parking,Y,"","Shark''s Tooth Beach, Shark Tooth, Shark Fin Cove, Jah Beach"
4761,Central,Santa Cruz,Davenport,Davenport Landing Beach,https://www.californiabeaches.com/beach/davenport-landing-beach/,335 Davenport Landing Rd,Davenport,CA,95017,37.02434,-122.216152,"Coast Dairies State Park, Davenport Landing State Beach",State Parks,"","Sunbathing, Whale Watching, Tidepooling, Windsurfing, Surfing","Restrooms, Tide Pools, Picnic Tables, Accessible Features, Benches, Kids Play Area","",Y,Free parking,Y,"",""
4762,Central,Santa Cruz,Davenport,Davenport Pier Beach,https://www.californiabeaches.com/beach/davenport-pier-beach/,Cabrillo Hwy and Cement Plant Rd,Davenport,CA,95017,37.012509,-122.199286,Coast Dairies State Park,"State, BLM","","Photography, Beach Exploration","Old Concrete Pier Ruins, Blowhole, Trails","",Y,Free parking,Y,"",""
4763,Central,Santa Cruz,Davenport,Greyhound Rock Coastal Access,https://www.californiabeaches.com/beach/greyhound-rock-coastal-access/,1551 Cabrillo Hwy,Davenport,CA,95017,37.078803,-122.267166,Greyhound Rock Fishing Access County Park,County,http://www.scparks.com/Home/Parks/BeachesandCoastalAccess.aspx,"Fishing, Beachcombing, Beach Walking, Tidepooling, Surfing","Viewing Platform, Restrooms, Picnic Tables, Tide Pools, Accessible Features, Benches",Dogs allowed on leash,Y,Free parking,Y,"",""
4764,Central,Santa Cruz,Davenport,Scott Creek Beach,https://www.californiabeaches.com/beach/scott-creek-beach/,Cabrillo Hwy,Davenport,CA,95017,37.03936,-122.22898,"Coast Dairies State Park, Scott Creek State Beach",State Parks,"","Beachcombing, Beach Exploration, Beach Walking, Windsurfing, Kiteboarding, Tidepooling, Surfing","Tide Pools, Dunes, Creek, No Facilities",No dogs allowed on the beach,N,Free parking,Y,"",""
4765,Central,Santa Cruz,Davenport,Secret Beach Of Coast Dairies,https://www.californiabeaches.com/beach/secret-beach-of-coast-dairies/,Cabrillo Hwy,Davenport,CA,95017,37.005999,-122.189789,Coast Dairies State Park,State Parks,"","Walking, Hiking, Beach Exploration","Trails, No Facilities","",Y,Free parking,Y,"",""
4766,Central,Santa Cruz,Davenport,Waddell Creek Beach,https://www.californiabeaches.com/beach/waddell-creek-beach/,3600 Highway 1,Davenport,CA,95017,37.096083,-122.279359,"Big Basin Redwoods State Park, Rancho del Oso, Theodore J. Hoover Natural Preserve",State Park,http://www.parks.ca.gov/?page_id=540,"Windsurfing, Kiteboarding, Surfing, Hiking, Mountain Biking, Equestrian Use, Backpacking, Driftwood, Bodyboarding, Birdwatching, Fishing, Beachcombing, Camping","Trails, Nature Trail, Campground, Restrooms",No dogs allowed on the beach,N,Fee for parking,N,"",Waddell State Beach
4767,Central,Santa Cruz,Santa Cruz,2222 Beach,https://www.californiabeaches.com/beach/2222-beach/,2222 W Cliff Dr,Santa,CA,95060,36.949754,-122.052893,"",City,"","Beach Exploration, Walking, Biking","No Facilities, Bike Lane",No dogs allowed on the beach,N,Free parking,Y,"",""
4768,Central,Santa Cruz,Santa Cruz,26Th Avenue Beach,https://www.californiabeaches.com/beach/26th-avenue-beach/,E Cliff Dr and 26th Ave,Santa,CA,95062,36.957773,-121.981537,"",City,"","Sunbathing, Beach Walking, Surfing",No Facilities,Dogs allowed on leash,Y,"",N,"",26th Street Beach
4769,Central,Santa Cruz,Santa Cruz,Three Mile Beach At Wilder Ranch State Park,https://www.californiabeaches.com/beach/three-mile-beach-at-wilder-ranch-state-park/,3050 Coast Rd,Santa,CA,95060,36.961483,-122.112686,Wilder Ranch State Park,State Park,http://www.parks.ca.gov/?page_id=549,"Hiking, Mountain Biking, Birdwatching","Trails, Wetlands",No dogs allowed on the beach,N,Free parking,Y,"",Three Mile Beach
4770,Central,Santa Cruz,Santa Cruz,36Th Avenue Beach Access,https://www.californiabeaches.com/beach/36th-avenue-beach-access/,E Cliff Dr and 36th Ave,Santa,CA,95062,36.957575,-121.969389,"",County,"",Surfing,"Benches, No Facilities, Bike Lane",Dogs allowed on leash,Y,"",N,"",""
4771,Central,Santa Cruz,Santa Cruz,38Th Avenue Beach Access,https://www.californiabeaches.com/beach/38th-avenue-beach-access/,E Cliff Dr and 38th Ave,Santa,CA,95062,36.958652,-121.967291,"",County,"","Sunbathing, Surfing","No Facilities, Bike Lane, Benches",Dogs allowed on leash,Y,"",N,"",""
4772,Central,Santa Cruz,Santa Cruz,Four Mile Beach At Wilder Ranch State Park,https://www.californiabeaches.com/beach/four-mile-beach-at-wilder-ranch-state-park/,Cabrillo Hwy,Santa,CA,95060,36.96622,-122.12281,Wilder Ranch State Park,State Park,http://www.parks.ca.gov/?page_id=549,"Surfing, Hiking, Mountain Biking, Birdwatching","Trails, Toilets, Lagoon, Wetlands",No dogs allowed on the beach,N,Free parking,Y,"",Four Mile Beach
4773,Central,Santa Cruz,Santa Cruz,Blacks Beach Santa Cruz,https://www.californiabeaches.com/beach/blacks-beach-santa-cruz/,198 14th Ave,Santa,CA,95062,36.96035,-121.993923,Twin Lakes State Beach,State Park,http://www.parks.ca.gov/?page_id=547,"Sunbathing, Picnicking, Surfing","Lifeguard, Toilets, Benches",Dogs allowed on leash,Y,"",N,"","Lincoln Beach, Lincoln''s"
4774,Central,Santa Cruz,Santa Cruz,Corcoran Lagoon Beach,https://www.californiabeaches.com/beach/corcoran-lagoon-beach/,E Cliff Dr and Coastview Dr,Santa,CA,95062,36.959521,-121.984735,"",County,"",Sunbathing,"Lagoon, No Facilities",Dogs allowed on leash,Y,"",N,"",21st Ave Beach
4775,Central,Santa Cruz,Santa Cruz,Cowell Beach,https://www.californiabeaches.com/beach/cowell-beach/,Pacific Ave and Beach St,Santa,CA,95060,36.961611,-122.024186,"",City,http://www.cityofsantacruz.com/index.aspx?page=926,"Surfing, Volleyball, Sunbathing","Pier, Volleyball Courts, Lifeguard, Restrooms",No dogs allowed on the beach,N,"",N,"",Cowell's Beach
4776,Central,Santa Cruz,Santa Cruz,Fern Grotto Beach At Wilder Ranch State Park,https://www.californiabeaches.com/beach/fern-grotto-beach-at-wilder-ranch-state-park/,1401 Old Coast Rd,Santa,CA,95060,36.954432,-122.087226,Wilder Ranch State Park,State Park,http://www.parks.ca.gov/?page_id=549,"Hiking, Mountain Biking, Birdwatching, Beach Exploration","Trails, Grotto, Cave",No dogs allowed on the beach,N,Fee for parking,N,"",Old Cove Landing
4777,Central,Santa Cruz,Santa Cruz,Hole In The Wall Beach,https://www.californiabeaches.com/beach/hole-in-the-wall-beach/,Cabrillo Hwy,Santa,CA,95060,36.991067,-122.168893,Coast Dairies State Park,State Parks,"","Sunbathing, Beach Exploration, Photography","Rock Arch, No Facilities",No dogs allowed on the beach,N,Free parking,Y,"",""
4778,Central,Santa Cruz,Santa Cruz,Its Beach,https://www.californiabeaches.com/beach/its-beach/,701 W Cliff Dr,Santa,CA,95060,36.951877,-122.028588,Lighthouse Field State Beach,City,"","Walking, Beach Exploration, Dog Walking, Birdwatching, Surfing","Lighthouse, Surfing Museum, Grass Park, Trails, Walking Path, Benches, Restrooms, Rock Arch, Bodyboarding",Dogs allowed off leash before 10am and after 4pm. OK on leash anytime.,Y,Free parking,Y,"",Dog Beach
4779,Central,Santa Cruz,Santa Cruz,Laguna Creek Beach,https://www.californiabeaches.com/beach/laguna-creek-beach/,Laguna Rd and Cabrillo Hwy,Santa,CA,95060,36.982989,-122.155899,Coast Dairies State Park,State Parks,"","Birdwatching, Sunbathing, Tidepooling, Hiking, Surfing","Lagoon, Tide Pools, Dunes, Wetlands, No Facilities",No dogs allowed on the beach,N,Free parking,Y,"",Laguna Creek State Beach
4780,Central,Santa Cruz,Santa Cruz,Lighthouse Field State Beach,https://www.californiabeaches.com/beach/lighthouse-field-state-beach/,701 W Cliff Dr,Santa,CA,95060,36.951502,-122.026439,Lighthouse Field State Beach,State Park,http://www.parks.ca.gov/?page_id=550,"Surfing, Walking, Biking, Skating, Running, Wildlife Watching, Birdwatching","Lighthouse, Surfing Museum, Grass Park, Trails, Restrooms, Picnic Tables, Benches",Dogs allowed on leash in the interior portion of the park,Y,Free parking,Y,"",""
4781,Central,Santa Cruz,Santa Cruz,Mitchells Cove Beach,https://www.californiabeaches.com/beach/mitchells-cove-beach/,W Cliff Dr and David Way,Santa,CA,95060,36.952844,-122.040473,"",City,"","Walking, Beach Exploration, Dog Walking","Toilets, Walking Path",Dogs allowed off leash before 10am and after 4pm. OK on leash anytime.,Y,Free parking,Y,"",Mitchell Cove
4782,Central,Santa Cruz,Santa Cruz,Moran Lake Park Beach,https://www.californiabeaches.com/beach/moran-lake-park-beach/,22798 E Cliff Dr,Santa,CA,95062,36.956281,-121.97817,Moran Lake County Park,County,http://www.scparks.com/Home/Parks/ListofAllCountyParks/MoranLakePark.aspx,"Surfing, Fishing, Picnicking, Sunbathing, Bird Watching","Picnic Tables, Restrooms, Trail, Lagoon",Dogs allowed on leash,Y,"",N,"",""
4783,Central,Santa Cruz,Santa Cruz,Natural Bridges State Beach,https://www.californiabeaches.com/beach/natural-bridges-state-beach/,2531 W Cliff Dr,Santa,CA,95060,36.95003,-122.057483,Natural Bridges State Beach,State Park,http://www.parks.ca.gov/?page_id=541,"Tidepooling, Birdwatching, Whale Watching, Sunbathing, Photography","Trails, Butterfly Preserve, Tide Pools, Rock Arch, Restrooms, Picnic Tables, BBQs, Lifeguard",No dogs allowed on the beach,N,Fee for parking in the park. Free parking at overlook lot on Cliff Dr.,Y,"",""
4784,Central,Santa Cruz,Santa Cruz,Panther Beach,https://www.californiabeaches.com/beach/panther-beach/,Cabrillo Hwy,Santa,CA,95060,36.992819,-122.170149,Coast Dairies State Park,State Parks,"","Sunbathing, Beach Exploration, Rock Climbing","Rock Arch, Caves, No Facilities",No dogs allowed on the beach,N,Free parking,Y,"",Yellow Bank Beach
4785,Central,Santa Cruz,Santa Cruz,Pleasure Point Park Beach,https://www.californiabeaches.com/beach/pleasure-point-park-beach/,E Cliff Dr and Pleasure Point Dr,Santa,CA,95062,36.955687,-121.971679,Pleasure Point Park,City,"","Surfing, Picnicking","Picnic Tables, Toilets, Bike Lane, Benches, Showers, Restrooms",Dogs allowed on leash,Y,Free street parking,Y,"",30th & East Cliff
4786,Central,Santa Cruz,Santa Cruz,Privates Beach,https://www.californiabeaches.com/beach/privates-beach/,4524 Opal Cliff Dr,Santa,CA,95062,36.965135,-121.960419,"",Private,"",Surfing,"No Facilities, Benches",No dogs on weekends and holidays,N,"",N,"",Key Beach
4787,Central,Santa Cruz,Santa Cruz,Red White And Blue Beach,https://www.californiabeaches.com/beach/red-white-and-blue-beach/,Scaroni Rd,Santa,CA,95060,36.97639,-122.141686,"",Private,http://redwhiteandbluebeach.com/,"Beach Exploration, Surfing, Birdwatching",No public facilities any more,No dogs allowed,N,They used to charge a fee for access but it is closed 24/7 now,N,"","RWB Beach, Majors Creek Beach"
4788,Central,Santa Cruz,Santa Cruz,Sand Hill Bluff,https://www.californiabeaches.com/beach/sand-hill-bluff/,5511 Coast Rd,Santa,CA,95060,36.97798,-122.14723,Sand Hill Bluff State Park,State Park,http://www.parks.ca.gov/?page_id=24203,"Sunbathing, Walking, Hiking, Birdwatching, Whale Watching",No Facilities,No dogs allowed on the beach,N,"",N,"",""
4789,Central,Santa Cruz,Santa Cruz,Sand Plant Beach At Wilder Ranch State Park,https://www.californiabeaches.com/beach/sand-plant-beach-at-wilder-ranch-state-park/,1401 Old Coast Rd,Santa,CA,95060,36.954655,-122.091244,Wilder Ranch State Park,State Park,http://www.parks.ca.gov/?page_id=549,"Hiking, Mountain Biking, Birdwatching","Trails, Wetlands",No dogs allowed on the beach,N,Fee for parking,N,"",""
4790,Central,Santa Cruz,Santa Cruz,Santa Cruz Harbor Beach,https://www.californiabeaches.com/beach/santa-cruz-harbor-beach/,E Cliff Dr and 5th Ave,Santa,CA,95062,36.962403,-122.000535,Twin Lakes State Beach,State Park,http://www.parks.ca.gov/?page_id=547,"Volleyball, Kayaking, Sunbathing, Sailing, Fishing, Boating","Volleyball Courts, Restaurant, Restrooms, Rentals",Dogs allowed on leash,Y,Paid parking lot,N,"",""
4791,Central,Santa Cruz,Santa Cruz,Santa Cruz Main Beach,https://www.californiabeaches.com/beach/santa-cruz-main-beach/,399 Beach St,Santa,CA,95060,36.963271,-122.01925,"",City,https://www.cityofsantacruz.com/government/city-departments/parks-recreation/parks-beaches-open-spaces/beaches-aquatics,"Volleyball, Sunbathing, Swimming, Mini Golf, Bowling, Walking, Kayaking, Fishing, Boating, Stand Up Paddleboarding","Lifeguard, Restrooms, Shops, Restaurant, Amusement Park, Arcade, Boardwalk, Pier, Volleyball Courts, Kayak Rentals, Train",No dogs allowed on the beach,N,"",N,"",""
4792,Central,Santa Cruz,Santa Cruz,Santa Marias Beach,https://www.californiabeaches.com/beach/santa-marias-beach/,E Cliff Dr and 20th Ave,Santa,CA,95062,36.960296,-121.987266,"",County,"","Sunbathing, Surfing",No Facilities,Dogs allowed on leash,Y,"",N,"",""
4793,Central,Santa Cruz,Santa Cruz,Seabright Beach,https://www.californiabeaches.com/beach/seabright-beach/,E Cliff Dr and Mott Ave,Santa,CA,95062,36.96361,-122.008509,Twin Lakes State Beach,State Park,http://www.parks.ca.gov/?page_id=547,"Surfing, Sunbathing, Swimming, Bonfires","Lifeguard, Restrooms, Lighthouse, Rock Arch, Fire Pits",Dogs allowed on leash,Y,"",N,"",Castle Beach
4794,Central,Santa Cruz,Santa Cruz,Steamer Lane,https://www.californiabeaches.com/beach/steamer-lane/,W Cliff Dr and Pelton Ave,Santa,CA,95060,36.952589,-122.025757,"",City,"",Surfing,"Restrooms, Benches, Grass Park, Trails","",Y,Free parking,Y,"",""
4795,Central,Santa Cruz,Santa Cruz,Strawberry Beach At Wilder Ranch State Park,https://www.californiabeaches.com/beach/strawberry-beach-at-wilder-ranch-state-park/,3050 Coast Rd,Santa,CA,95060,36.956344,-122.10207,Wilder Ranch State Park,State,http://www.parks.ca.gov/?page_id=549,"Hiking, Mountain Biking, Birdwatching",Trails,No dogs allowed on the beach,N,Free parking,Y,"",""
4796,Central,Santa Cruz,Santa Cruz,Sunny Cove,https://www.californiabeaches.com/beach/sunny-cove/,E Cliff Dr and Sunny Cove Dr,Santa,CA,95062,36.960534,-121.989489,"",County,"","Bodyboarding, Skimboarding, Sunbathing",No Facilities,Dogs allowed on leash,Y,"",N,"",""
4797,Central,Santa Cruz,Santa Cruz,The Hook,https://www.californiabeaches.com/beach/the-hook/,E Cliff Dr and 41st Ave,Santa,CA,95062,36.959783,-121.965129,"",County,"",Surfing,"Restrooms, Picnic Tables, Bike Lane, Benches, Showers",Dogs allowed on leash,Y,Free parking in lot,Y,"",41st Avenue Beach
4798,Central,Santa Cruz,Santa Cruz,Twin Lakes State Beach,https://www.californiabeaches.com/beach/twin-lakes-state-beach/,E Cliff Dr and 9th Ave,Santa,CA,95062,36.961472,-121.997826,"Twin Lakes State Beach, Schwan Lake Park",State Park,http://www.parks.ca.gov/?page_id=547,"Swimming, Sunbathing, Picnicking, Birdwatching, Bonfires","Restrooms, Showers, Lifeguard, Lagoon, Fire Pits, Wetlands",Dogs allowed on leash,Y,"",N,"",""
4799,Central,Santa Cruz,Santa Cruz,Wilder Beach At Wilder Ranch State Park,https://www.californiabeaches.com/beach/wilder-beach-at-wilder-ranch-state-park/,1401 Old Coast Rd,Santa,CA,95060,36.95332,-122.07833,"Wilder Ranch State Park, Wilder Beach Natural Preserve",State Park,http://www.parks.ca.gov/?page_id=549,"Hiking, Mountain Biking, Birdwatching, Equestrian Use, Walking, Surfing","Trails, Restrooms, Beach Viewing Platform, Historic Ranch, Gift Shop, Accessible Features",No dogs allowed in the park,N,Fee for parking,N,"",""
4800,Central,Santa Cruz,Santa Cruz,Younger Lagoon Beach,https://www.californiabeaches.com/beach/younger-lagoon-beach/,100 Shaffer Road,Santa,CA,95060,36.949047,-122.067002,"Joseph M. Long Marine Laboratory, Seymour Marine Discovery Center",University,http://seymourcenter.ucsc.edu/,"Wildlife Watching, Birdwatching, Tidepooling, Walking","Trails, Tours, Aquarium",No dogs allowed on the beach,N,"",N,"",""
4801,Central,Santa Cruz,Watsonville,Manresa State Beach,https://www.californiabeaches.com/beach/manresa-state-beach/,205 Manresa Beach Road,Watsonville,CA,95076,36.93196,-121.862803,Manresa State Beach,State Park,http://www.parks.ca.gov/?page_id=545,"Sunbathing, Picnicking, Fishing, Beach Walking, Bonfires","Lifeguard, Restrooms, Picnic Tables, Fire Pits, Campground",Dogs allowed on leash,Y,Fee for parking and camping,N,831-724-3750,""
4802,Central,Santa Cruz,Watsonville,Manresa Uplands Beach,https://www.californiabeaches.com/beach/manresa-uplands-beach/,Sand Dollar Dr and Manresa Uplands Rd,Watsonville,CA,95076,36.919277,-121.854166,Manresa State Beach,State Park,http://www.parks.ca.gov/?page_id=545,"Camping, Fishing, Beachcombing, Beach Walking","Campground, Picnic Tables, Restrooms, Lifeguard",Dogs allowed on leash,Y,"Fee for parking, camping",N,"",Sand Dollar Beach
4803,Central,Santa Cruz,Watsonville,Palm Beach,https://www.californiabeaches.com/beach/palm-beach/,W Beach Rd and Rio Boca Rd,Watsonville,CA,95076,36.867772,-121.820585,Sunset State Beach,State Park,http://www.parks.ca.gov/?page_id=544,"Fishing, Picnicking, Beach Walking, Beachcombing","Picnic Tables, BBQs, Restrooms, Showers, Lifeguards, Dunes",Dogs allowed on leash on the beach in front of the park but not in front of homes or condos,Y,"Fee to enter park, but free on street outside of gate",Y,"","Pajaro Beach, Palm State Beach"
4804,Central,Santa Cruz,Watsonville,Sunset State Beach,https://www.californiabeaches.com/beach/sunset-state-beach/,223 Sunset Beach Rd,Watsonville,CA,95076,36.88135,-121.82872,Sunset State Beach,State Park,http://www.parks.ca.gov/?page_id=544,"Picnicking, Camping, Beachcombing, Beach Walking, Fishing","Campground, Picnic Tables, BBQs, Group Picnic Areas, Restrooms, Lifeguard, Remote Control Glider Port, Accessible Features, Dunes",No dogs allowed on the beach,N,"Fee for parking, camping",N,"",""
4805,Northern,San Mateo,Daly City,Mussel Rock Park Beach,https://www.californiabeaches.com/beach/mussel-rock-park-beach/,Skyline Dr and Westline Dr,Daly,CA,94015,37.673548,-122.495566,"Mussel Rock Park, Golden Gate National Recreation Area",City,"","Paragliding, Hang Gliding, Hiking, Walking, Birdwatching, Beachcombing","Paraglider Launch Pads, Toilets, Trails, Man-made Rock Arch",Dogs allowed on leash,Y,Free parking,Y,"",""
4806,Northern,San Mateo,Daly City,Phillip Burton Memorial Beach,https://www.californiabeaches.com/beach/phillip-burton-memorial-beach/,John Daly Blvd and California 35,Daly,CA,94015,37.707908,-122.502019,"","","","Fishing, Hiking, Beachcombing, Photography","Cave, Trails, No Facilities",Dogs allowed on leash,Y,Free parking at Fort Funston or Thornton State Beach,Y,"",""
4807,Northern,San Mateo,Daly City,Thornton State Beach,https://www.californiabeaches.com/beach/thornton-state-beach/,John Daly Blvd and Skyline Boulevard,Daly,CA,94015,37.697199,-122.499057,"Thornton State Beach, Thornton Beach Vista",State Park,http://www.parks.ca.gov/?page_id=530,"Hiking, Equestrian Use, Fishing, Beachcombing","Overlook Platform, Benches, Trails, No Facilities",Dogs allowed on leash,Y,Free parking,Y,"",""
4808,Northern,San Mateo,Foster City,3Rd Ave Beach,https://www.californiabeaches.com/beach/3rd-ave-beach/,E 3rd Ave and Lakeside Dr,Foster,CA,94404,37.57146,-122.278834,"","","","Kiteboarding, Windsurfing, Biking, Running, Golf","Paved Bike Path, Picnic Tables, Benches, Golf Course","",Y,"",N,"","Kiteboard Beach, Third Ave Beach"
4809,Northern,San Mateo,Half Moon Bay,Cowell Ranch Beach,https://www.californiabeaches.com/beach/cowell-ranch-beach/,17500 Cabrillo Hwy S,Half,CA,94019,37.42144,-122.43504,Cowell Ranch State Beach,State,https://openspacetrust.org/hike/cowell-purisima-trail/,"Hiking, Birdwatching, Beachcombing","Toilets, Trails",No dogs allowed on the trail or beach.,N,No fee for parking,N,"",""
4810,Northern,San Mateo,Half Moon Bay,Cowell Purisima Trail,https://www.californiabeaches.com/beach/cowell-purisima-trail/,Cabrillo Highway,Half,CA,94019,37.394863,-122.421159,California Coastal Trail,State,https://openspacetrust.org/hike/cowell-purisima-trail/,"Hiking, Mountain Biking, Birdwatching, Wildlife Watching","Trails, Accessible Features",No dogs allowed on the trail,N,No fee for parking,N,"",Seal Beach
4811,Northern,San Mateo,Half Moon Bay,Dunes Beach Half Moon Bay,https://www.californiabeaches.com/beach/dunes-beach-half-moon-bay/,Young Ave and Cabrillo Hwy N,Half,CA,94019,37.483425,-122.452988,Half Moon Bay State Beach,State Park,http://www.parks.ca.gov/?page_id=531,"Hiking, Walking, Running, Biking, Skating, Fishing, Beachcombing, Beach Walking, Sunbathing","Dunes, Restrooms, Paved Bike Path","No dogs allowed on beach, but OK on Coastal Trail if leashed",N,Fee for parking,N,"",""
4812,Northern,San Mateo,Half Moon Bay,Elmar Beach Half Moon Bay,https://www.californiabeaches.com/beach/elmar-beach-half-moon-bay/,End of Venice Blvd or Kelly Ave,Half,CA,94019,37.47337,-122.44767,Half Moon Bay State Beach,State Park,http://www.parks.ca.gov/?page_id=531,"Hiking, Biking, Fishing, Birdwatching, Beachcombing","Paved Bike Path, No Facilities","No dogs allowed on beach, but OK on Coastal Trail if leashed",N,Fee for parking,N,650-726-8820,""
4813,Northern,San Mateo,Half Moon Bay,Francis Beach Half Moon Bay,https://www.californiabeaches.com/beach/francis-beach-half-moon-bay/,Kelly Ave and Balboa Blvd,Half,CA,94019,37.466852,-122.446621,Half Moon Bay State Beach,State Park,http://www.parks.ca.gov/?page_id=531,"Hiking, Biking, Running, Skating, Fishing, Beachcombing, Beach Walking, Sunbathing, Camping, Surfing","Campground, Restrooms, Showers, Picnic Tables, BBQs, Paved Bike Path, Visitor Center","No dogs allowed on beach, but OK on Coastal Trail if leashed",N,Fee for parking,N,"",Kelly Beach
4814,Northern,San Mateo,Half Moon Bay,Martins Beach Half Moon Bay,https://www.californiabeaches.com/beach/martins-beach-half-moon-bay/,Martins Beach Rd and Cabrillo Hwy S,Half,CA,94019,37.375128,-122.408089,"",State,"","Surfing, Fishing, Photography, Beach Walking, Sunbathing, Picnicking","Tide Pools, Rock Arch",No dogs allowed,N,Fee charged for parking,N,"",Martin's
4815,Northern,San Mateo,Half Moon Bay,Mavericks Beach,https://www.californiabeaches.com/beach/mavericks-beach/,W Point Ave,Half,CA,94019,37.49564,-122.49526,"",County,http://titansofmavericks.com/,"Surfing, Whale Watching, Hiking, Birdwatching","Toilets, Trails",Dogs allowed on leash,Y,No fee for parking,N,"",Pillar Point Beach
4816,Northern,San Mateo,Half Moon Bay,Mirada Surf Beach,https://www.californiabeaches.com/beach/mirada-surf-beach/,Magellan Ave and Mirada Rd,Half,CA,94019,37.49808,-122.46586,"Mirada Surf West, Mirada Surf East, Quarry Park",County,http://parks.smcgov.org/mirada-surf,"Beachcombing, Biking, Hiking, Running, Jogging, Walking","Paved Bike Path, Picnic Tables, Trails, Restrooms","Dogs allowed on leash on beach, on paved trail, and at the park",Y,No fee for parking,N,"",Vallejo Beach
4817,Northern,San Mateo,Half Moon Bay,Miramar Beach Half Moon Bay,https://www.californiabeaches.com/beach/miramar-beach-half-moon-bay/,Medio Ave and Mirada Rd,Half,CA,94019,37.493354,-122.460075,"",City,"","Biking, Hiking, Running, Walking, Surfing","Bike Path, Trails, Restrooms, Showers",Dogs allowed off leash,Y,Free parking,Y,"",""
4818,Northern,San Mateo,Half Moon Bay,Pelican Point Beach,https://www.californiabeaches.com/beach/pelican-point-beach/,1001 Miramontes Point Rd,Half,CA,94019,37.430041,-122.439754,"",City Beach,"","Beach Walking, Beachcombing, Tidepooling, Walking","Toilets, Walking Path, Tide Pools, Golf Course, Resort, Restaurants, RV Park",Dogs allowed off leash,Y,No fee for parking,N,"","Miramontes Public Access, Mira Montes Point Coastal Access, Manhattan Beach"
4819,Northern,San Mateo,Half Moon Bay,Pillar Point Harbor Beach,https://www.californiabeaches.com/beach/pillar-point-harbor-beach/,4000 Cabrillo Hwy N,Half,CA,94019,37.501824,-122.475514,"",City,"","Kiteboarding, Boating, Birdwatching, Walking, Biking","RV Park, Restaurant, Boat Launch, Restrooms",Dogs allowed on leash,Y,No fee for parking,N,"",""
4820,Northern,San Mateo,Half Moon Bay,Pillar Point Marsh Beach,https://www.californiabeaches.com/beach/pillar-point-marsh-beach/,W Point Ave,Half,CA,94019,37.50167,-122.4936,"",County,"","Hiking, Birdwatching, Kayaking, Stand-Up Paddleboarding","Toilets, Trails, Wetlands","Dogs allowed on trail on leash, no dogs in wetlands",Y,No fee for parking,N,"",""
4821,Northern,San Mateo,Half Moon Bay,Poplar Beach,https://www.californiabeaches.com/beach/poplar-beach/,Poplar St and Railroad Ave,Half,CA,94019,37.454752,-122.444848,Bluff Top Coastal Park,City,"","Hiking, Biking, Running, Fishing, Beach Walking, Equestrian Use","Toilets, Paved Bike Path",Dogs allowed on leash,Y,Fee for parking,N,"",Blufftop Beach
4822,Northern,San Mateo,Half Moon Bay,Redondo Beach Half Moon Bay,https://www.californiabeaches.com/beach/redondo-beach-half-moon-bay/,Redondo Beach Rd and Thorne Ave,Half,CA,94019,37.441753,-122.443956,Wavecrest Open Space,Trust,https://openspacetrust.org/hike/wavecrest-hike/,"Beachcombing, Tidepooling, Mountain Biking, Hiking, Walking, Running, Beach Walking, Birdwatching","Tide Pools, Trails, No Facilities",Dogs allowed on trails and beach,Y,No fee for parking,N,"",Wavecrest Beach
4823,Northern,San Mateo,Half Moon Bay,Roosevelt Beach Half Moon Bay,https://www.californiabeaches.com/beach/roosevelt-beach-half-moon-bay/,Young Ave and Cabrillo Hwy N,Half,CA,94019,37.488463,-122.455749,Half Moon Bay State Beach,State Park,http://www.parks.ca.gov/?page_id=531,"Hiking, Biking, Running, Walking, Skating, Fishing, Beachcombing, Beach Walking","Restrooms, Paved Bike Path, Dunes, Picnic Tables","No dogs allowed on beach, but OK on Coastal Trail if leashed",N,Fee for parking in the state park lot,N,"",Naples Beach
4824,Northern,San Mateo,Half Moon Bay,Ross Cove Beach,https://www.californiabeaches.com/beach/ross-cove-beach/,W Point Ave,Half,CA,94019,37.500836,-122.498417,"James V. Fitzgerald Marine Reserve, Pillar Point Bluff Park",County,http://parks.smcgov.org/fitzgerald-marine-reserve,"Surfing, Beachcombing, Whale Watching, Hiking","Toilets, Trails",No dogs allowed on the beach,N,No fee for parking,N,"",Ross' Cove
4825,Northern,San Mateo,Half Moon Bay,Surfers Beach,https://www.californiabeaches.com/beach/surfers-beach/,4000 Cabrillo Hwy N,Half,CA,94019,37.50063,-122.47033,"",County,"","Surfing, Fishing","Restrooms, Paved Bike Path",Dogs allowed on leash,Y,No fee for parking,N,"","El Granada Beach, Surfer''s Beach"
4826,Northern,San Mateo,Half Moon Bay,Tunitas Creek Beach,https://www.californiabeaches.com/beach/tunitas-creek-beach/,Tunitas Creek Rd and Cabrillo Hwy S,Half,CA,94019,37.35698,-122.40071,"",Trust,https://openspacetrust.org/blog/tunitas-creek-beach/,"Surfing, Beach Exploration, Birdwatching","Creek, No Facilities",Dogs are not allowed on the beach,N,No fee for parking,N,"",""
4827,Northern,San Mateo,Half Moon Bay,Venice Beach Half Moon Bay,https://www.californiabeaches.com/beach/venice-beach-half-moon-bay/,400 Venice Blvd,Half,CA,94019,37.479705,-122.450977,Half Moon Bay State Beach,State Park,http://www.parks.ca.gov/?page_id=531,"Hiking, Biking, Running, Skating, Fishing, Beach Walking, Beachcombing, Birdwatching, Sunbathing, Walking","Restrooms, Showers, Paved Bike Path, Trails","No dogs allowed on beach, but OK on Coastal Trail if leashed",N,Fee for parking,N,"",""
4828,Northern,San Mateo,Montara,Gray Whale Cove State Beach,https://www.californiabeaches.com/beach/gray-whale-cove-state-beach/,Cabrillo Hwy,Montara,CA,94037,37.564375,-122.513962,Gray Whale Cove State Beach,State Park,http://www.parks.ca.gov/?page_id=528,"Whale Watching, Hiking, Sunbathing, Surfing","Trails, Military Ruins, No Facilities",No dogs allowed on the beach,N,No fee for parking,N,"","Devils Slide Beach, Grey Whale Cove"
4829,Northern,San Mateo,Montara,Gray Whale Cove Nude Beach,https://www.californiabeaches.com/beach/gray-whale-cove-nude-beach/,Cabrillo Hwy,Montara,CA,94037,37.566857,-122.51462,Gray Whale Cove State Beach,State,http://www.parks.ca.gov/?page_id=528,"Sunbathing, Surfing",No Facilities,No dogs allowed on the beach,N,No fee for parking,N,"","Edun Beach, Grey Whale Nude Beach"
4830,Northern,San Mateo,Montara,Montara State Beach,https://www.californiabeaches.com/beach/montara-state-beach/,2nd St and Cabrillo Hwy,Montara,CA,94037,37.54926,-122.51404,"Montara State Beach, McNee Ranch State Park",State Park,http://www.parks.ca.gov/?page_id=532,"Fishing, Tidepooling, Hiking, Beachcombing, Surfing, Beach Walking","Tide Pools, Trails",Dogs allowed on leash,Y,No fee for parking,N,"",""
4831,Northern,San Mateo,Montara,Point Montara Light Station,https://www.californiabeaches.com/beach/point-montara-light-station/,16th St and Cabrillo Hwy,Montara,CA,94037,37.537616,-122.518592,Point Montara Light Station State Property,State Park,https://www.hiusa.org/hostels/california/montara/point-montara-lighthouse-hostel,"Whale Watching, Beach Exploration, Tidepooling","Lighthouse, Hostel, Tide Pools",Dogs allowed on leash on the property but not allowed in the hostel,N,No fee for day-use parking,N,"",""
4832,Northern,San Mateo,Moss Beach,James V Fitzgerald Marine Reserve Beach,https://www.californiabeaches.com/beach/james-v-fitzgerald-marine-reserve-beach/,North Lake St and California Ave,Moss,CA,94038,37.523897,-122.517641,James V. Fitzgerald Marine Reserve,County,http://parks.smcgov.org/fitzgerald-marine-reserve,"Hiking, Tidepooling","Tide Pools, Restrooms, Picnic Tables, Trails, Benches, Wooded Park",No dogs allowed on the beach,N,No fee for parking,N,"",""
4833,Northern,San Mateo,Moss Beach,Moss Beach Juliana Access,https://www.californiabeaches.com/beach/moss-beach-juliana-access/,Wienke Way and Juliana Ave,Moss,CA,94038,37.529353,-122.517065,"","","","Beach Exploration, Whale Watching","Benches, Trails, Cave, No Facilities",No dogs allowed on the beach,N,No fee for parking,N,"",""
4834,Northern,San Mateo,Moss Beach,Ross Cove Beach,https://www.californiabeaches.com/beach/ross-cove-beach/,W Point Ave,Half,CA,94019,37.500836,-122.498417,"James V. Fitzgerald Marine Reserve, Pillar Point Bluff Park",County,http://parks.smcgov.org/fitzgerald-marine-reserve,"Surfing, Beachcombing, Whale Watching, Hiking","Toilets, Trails",No dogs allowed on the beach,N,No fee for parking,N,"",Ross' Cove
4835,Northern,San Mateo,Moss Beach,Seal Cove,https://www.californiabeaches.com/beach/seal-cove/,Cypress Ave and Beach Way,Moss,CA,94038,37.519453,-122.513853,James V. Fitzgerald Marine Reserve,County,http://parks.smcgov.org/fitzgerald-marine-reserve,"Hiking, Tidepooling","Tide Pools, Trails, Wooded Park",No dogs allowed on the beach,N,No fee for parking,N,"",Cypress Beach
4836,Northern,San Mateo,Pacifica,Esplanade Beach,https://www.californiabeaches.com/beach/esplanade-beach/,Esplanade Ave and W Manor Dr,Pacifica,CA,94044,37.649866,-122.493643,"",City,http://www.cityofpacifica.org/depts/rec_department/parksbeaches/default.asp,"Beach Walking, Dog Walking, Surfing, Fishing",No Facilities,Dogs allowed off leash at the north end of beach and on leash everywhere else,Y,No fee for parking,N,"",""
4837,Northern,San Mateo,Pacifica,Gray Whale Cove State Beach,https://www.californiabeaches.com/beach/gray-whale-cove-state-beach/,Cabrillo Hwy,Montara,CA,94037,37.564375,-122.513962,Gray Whale Cove State Beach,State Park,http://www.parks.ca.gov/?page_id=528,"Whale Watching, Hiking, Sunbathing, Surfing","Trails, Military Ruins, No Facilities",No dogs allowed on the beach,N,No fee for parking,N,"","Devils Slide Beach, Grey Whale Cove"
4838,Northern,San Mateo,Pacifica,Mori Point,https://www.californiabeaches.com/beach/mori-point/,Cabrillo Hwy and Bradford Way,Pacifica,CA,94044,37.616917,-122.496625,Golden Gate National Recreation Area,National,http://www.parksconservancy.org/visit/park-sites/mori-point.html,"Hiking, Walking","Trails, Viewing Platform, Benches, Accessible Features, Military Ruins","Dogs allowed on leash on the trails in the park, not advised at the beach due to access",Y,No fee for parking,N,"",""
4839,Northern,San Mateo,Pacifica,Mussel Rock Park Beach,https://www.californiabeaches.com/beach/mussel-rock-park-beach/,Skyline Dr and Westline Dr,Daly,CA,94015,37.673548,-122.495566,"Mussel Rock Park, Golden Gate National Recreation Area",City,"","Paragliding, Hang Gliding, Hiking, Walking, Birdwatching, Beachcombing","Paraglider Launch Pads, Toilets, Trails, Man-made Rock Arch",Dogs allowed on leash,Y,Free parking,Y,"",""
4840,Northern,San Mateo,Pacifica,Pacifica State Beach,https://www.californiabeaches.com/beach/pacifica-state-beach/,5200 Coast Hwy,Pacifica,CA,94044,37.599459,-122.501347,"Pacifica State Beach, Linda Mar Beach Park",State Park,http://www.cityofpacifica.org/depts/rec_department/parksbeaches/beach_and_park_info_and_rules/linda_mar_(pacifica_state_beach)/default.asp,"Surfing, Biking, Hiking, Beach Walking, Bodyboarding, Stand-Up Paddleboarding","Restrooms, Showers, Trails, Paved Bike Path, Tide Pools, Skatepark, Restaurant",Dogs allowed on leash,Y,Fee for parking,N,"","Linda Mar Beach, Taco Bell Beach"
4841,Northern,San Mateo,Pacifica,Point San Pedro Beach,https://www.californiabeaches.com/beach/point-san-pedro-beach/,Blackburn Terrace and Kent Rd,Pacifica,CA,94044,37.594401,-122.521122,"Pedro Point Headlands Park, Devil''s Slide Trail",State,http://www.pedropointheadlands.org/,"Beach Exploration, Photography, Hiking",No Facilities,No dogs allowed on the beach,N,No fee for parking,N,"",""
4842,Northern,San Mateo,Pacifica,Rockaway Beach,https://www.californiabeaches.com/beach/rockaway-beach/,Cabrillo Hwy and Rockaway Beach Ave,Pacifica,CA,94044,37.607957,-122.497977,"",City,http://www.cityofpacifica.org/depts/rec_department/parksbeaches/default.asp,"Hiking, Biking, Surfing, Fishing, Walking","Restrooms, Showers, Trails, Paved Bike Path",Dogs allowed on leash,Y,No fee for parking,N,"",""
4843,Northern,San Mateo,Pacifica,Sharp Park Beach,https://www.californiabeaches.com/beach/sharp-park-beach/,Montecito Ave and Beach Blvd,Pacifica,CA,94044,37.630662,-122.494371,Sharp Park,City,http://www.cityofpacifica.org/depts/rec_department/parksbeaches/beach_and_park_info_and_rules/sharpbeach.asp,"Fishing, Walking, Biking, Surfing, Beach Walking, Crabbing","Fishing Pier, Restrooms, Picnic Tables, BBQs, Grass Park, Trails, Golf Course, Benches, Cafe",Dogs allowed on leash,Y,No fee for parking,N,"",""
4844,Northern,San Mateo,Pacifica,Shelter Cove Beach Pacifica,https://www.californiabeaches.com/beach/shelter-cove-beach-pacifica/,Blackburn Terrace and Kent Rd,Pacifica,CA,94044,37.597451,-122.514101,"",Private,"http://en.wikipedia.org/wiki/Shelter_Cove,_Pacifica,_California",Beach Exploration,No Facilities,No dogs allowed on the beach,N,No fee for parking,N,"",""
4845,Northern,San Mateo,Pescadero,Arroyo De Los Frijoles Beach,https://www.californiabeaches.com/beach/arroyo-de-los-frijoles-beach/,Bean Hollow Rd and Cabrillo Hwy,Pescadero,CA,94060,37.225978,-122.409212,Bean Hollow State Beach,State Park,http://www.parks.ca.gov/?page_id=527,"Fishing, Hiking, Tidepooling","Nature Trail, Tide Pools, Picnic Tables, BBQs, Restrooms, Fafoni Rocks",Dogs allowed on leash,Y,No fee for parking,N,"",""
4846,Northern,San Mateo,Pescadero,Bolsa Point Beach,https://www.californiabeaches.com/beach/bolsa-point-beach/,9351 Cabrillo Hwy,Pescadero,CA,94060,37.200904,-122.405113,Bolsa Point Ranches Open Space,State Park,http://www.openspacetrust.org/downloads/newsletters/Landscapes-FA00.pdf,Beach Exploration,No Facilities,"",Y,"",N,"",""
4847,Northern,San Mateo,Pescadero,Cascade Creek Beach,https://www.californiabeaches.com/beach/cascade-creek-beach/,Cabrillo Hwy,Pescadero,CA,94060,37.137204,-122.338528,Ano Nuevo State Reserve,State,http://www.parks.ca.gov/?page_id=523,"Hiking, Beachcombing","Trails, No Facilities",No dogs allowed in the park,N,Free parking,Y,"",""
4848,Northern,San Mateo,Pescadero,Cove Beach,https://www.californiabeaches.com/beach/cove-beach/,1 New Years Creek Rd,Pescadero,CA,94060,37.116079,-122.306537,Ano Nuevo State Reserve,State Park,http://www.parks.ca.gov/?page_id=523,"Hiking, Surfing, Whale Watching, Beachcombing, Birdwatching, Beach Walking","Trails, Creek, No Facilities",No dogs allowed in the park,N,No fee for parking in the lot on the highway,N,"",New Years Creek Beach
4849,Northern,San Mateo,Pescadero,Franklin Point Beach,https://www.californiabeaches.com/beach/franklin-point-beach/,Cabrillo Hwy,Pescadero,CA,94060,37.15322,-122.35932,Ano Nuevo State Reserve,State Park,http://www.parks.ca.gov/?page_id=523,"Hiking, Beachcombing","Trails, Dunes, No Facilities",No dogs allowed in the park,N,Free parking,Y,"",The Fist
4850,Northern,San Mateo,Pescadero,Gazos Creek Beach,https://www.californiabeaches.com/beach/gazos-creek-beach/,Gazos Creek Rd and Cabrillo Hwy,Pescadero,CA,94060,37.16469,-122.3623,"Ano Nuevo State Reserve, Gazos Creek Day Use Area",State Park,http://www.parks.ca.gov/?page_id=523,"Kiteboarding, Windsurfing, Fishing, Beachcombing, Birdwatching","Toilets, Driftwood, Restaurant",No dogs allowed in the park,N,Free parking,Y,"",""
4851,Northern,San Mateo,Pescadero,Pebble Beach At Bean Hollow State Beach,https://www.californiabeaches.com/beach/pebble-beach-at-bean-hollow-state-beach/,Cabrillo Hwy,Pescadero,CA,94060,37.2367,-122.41585,Bean Hollow State Beach,State Park,http://www.parks.ca.gov/?page_id=527,"Hiking, Tidepooling, Fishing, Birdwatching","Restrooms, Nature Trail, Picnic Tables, BBQs, Tide Pools, Tafoni Rocks",Dogs allowed on leash,Y,No fee for parking,N,"",""
4852,Northern,San Mateo,Pescadero,Pescadero Point Beach,https://www.californiabeaches.com/beach/pescadero-point-beach/,12371 Cabrillo Hwy,Pescadero,CA,94060,37.243421,-122.418393,"",State,"","Beach Exploration, Beach Walking, Tidepooling","Tide Pools, No Facilities",Dogs allowed on leash,Y,Free parking,Y,"",""
4853,Northern,San Mateo,Pescadero,Pescadero State Beach North Beach,https://www.californiabeaches.com/beach/pescadero-state-beach-north-beach/,Cabrillo Hwy,San,CA,94074,37.2742,-122.40892,"Pescadero State Beach, Pescadero Marsh Natural Preserve",State Park,http://www.parks.ca.gov/?page_id=522,"Beachcombing, Beach Walking, Birdwatching, Fishing, Hiking, Surfing","Restrooms, Trails, Nature Preserve, Dunes, Driftwood, Wetlands, Rock Arch",No dogs allowed on beach or in natural areas,N,Fee for parking,N,"",Sand Beach (USGS)
4854,Northern,San Mateo,Pescadero,Pescadero State Beach South Beach,https://www.californiabeaches.com/beach/pescadero-state-beach-south-beach/,Pescadero Creek Rd and Cabrillo Hwy,Pescadero,CA,94060,37.263028,-122.412785,"Pescadero State Beach, Pescadero Marsh Natural Preserve",State Park,http://www.parks.ca.gov/?page_id=522,"Beach Exploration, Birdwatching, Fishing, Hiking, Swimming, Kayaking, Stand-Up Paddleboarding","Restrooms, Trails, Nature Preserve, Tide Pools, Picnic Tables, Creek, Lagoon, Rock Arch",No dogs allowed on beach or in natural areas,N,Fee for parking,N,"",""
4855,Northern,San Mateo,Pescadero,Pigeon Point Light Station State Historic Park,https://www.californiabeaches.com/beach/pigeon-point-light-station-state-historic-park/,210 Pigeon Point Rd,Pescadero,CA,94060,37.182775,-122.394396,Pigeon Point Light Station State Historic Park,State Park,http://www.parks.ca.gov/?page_id=533,"Walking, Birdwatching, Whale Watching, Tidepooling","Lighthouse, Hostel, Ocean Overlook, Tide Pools, Restrooms, Trails, Guided Tours, Bookstore","Dogs allowed on leash, but not at the lighthouse grounds",Y,No fee for parking,N,"",""
4856,Northern,San Mateo,Pescadero,Pistachio Beach,https://www.californiabeaches.com/beach/pistachio-beach/,Pigeon Point Rd and Cabrillo Hwy,Pescadero,CA,94060,37.192292,-122.3981,Pigeon Point Light Station State Historic Park,State Park,http://www.parks.ca.gov/?page_id=533,"Birdwatching, Whale Watching, Beach Walking","Tide Pools, No Facilities",Dogs allowed on leash,Y,Free parking,Y,"",""
4857,Northern,San Mateo,Pescadero,Point Ano Nuevo Beach,https://www.californiabeaches.com/beach/point-ano-nuevo-beach/,1 New Years Creek Rd,Pescadero,CA,94060,37.11766,-122.33355,"Ano Nuevo State Reserve, Ano Nuevo Coast Natural Preserve",State,http://www.parks.ca.gov/?page_id=523,"Wildlife Watching, Hiking","Guided Tours, Trails, Dunes, Restrooms, Lighthouse, Farm, Accessible Features",No dogs allowed in the park,N,"Fee for parking, guided tours",N,"",Bight Beach
4858,Northern,San Mateo,Pescadero,Whalers Cove,https://www.californiabeaches.com/beach/whalers-cove/,210 Pigeon Point Rd,Pescadero,CA,94060,37.182738,-122.392559,Pigeon Point Light Station State Historic Park,State Park,http://www.parks.ca.gov/?page_id=533,"Tidepooling, Walking","Lighthouse, Restrooms, Tide Pools, Trails, Hostel","Dogs allowed on leash at cove, but not at the lighthouse grounds",Y,Free parking,Y,"",""
4859,Northern,San Mateo,Pescadero,Whitehouse Creek Beach Access,https://www.californiabeaches.com/beach/whitehouse-creek-beach-access/,Whitehouse Canyon Rd and Cabrillo Hwy,Pescadero,CA,94060,37.145936,-122.346884,Ano Nuevo State Reserve,State Park,http://www.parks.ca.gov/?page_id=523,"Hiking, Beach Exploration, Camping","Trails, Campground, Restaurant, No Facilities",No dogs allowed in the park,N,Free parking,Y,"",""
4860,Northern,San Mateo,San Gregorio,Pescadero State Beach North Beach,https://www.californiabeaches.com/beach/pescadero-state-beach-north-beach/,Cabrillo Hwy,San,CA,94074,37.2742,-122.40892,"Pescadero State Beach, Pescadero Marsh Natural Preserve",State Park,http://www.parks.ca.gov/?page_id=522,"Beachcombing, Beach Walking, Birdwatching, Fishing, Hiking, Surfing","Restrooms, Trails, Nature Preserve, Dunes, Driftwood, Wetlands, Rock Arch",No dogs allowed on beach or in natural areas,N,Fee for parking,N,"",Sand Beach (USGS)
4861,Northern,San Mateo,San Gregorio,Pomponio State Beach,https://www.californiabeaches.com/beach/pomponio-state-beach/,Cabrillo Hwy,San,CA,94074,37.299398,-122.40594,Pomponio State Beach,State Park,http://www.parks.ca.gov/?page_id=521,"Beachcombing, Beach Walking","Restrooms, Picnic Tables, BBQs, Driftwood",No dogs allowed on the beach,N,Fee for parking,N,"",""
4862,Northern,San Mateo,San Gregorio,San Gregorio Private Beach,https://www.californiabeaches.com/beach/san-gregorio-private-beach/,19429 Cabrillo Hwy,San,CA,94074,37.330265,-122.402714,"",Private,"","Sunbathing, Beach Walking, Fishing","Driftwood, Caves, Toilets, Tide Pools",Dogs allowed except on weekends and holidays,Y,Fee charged for parking,N,"",""
4863,Northern,San Mateo,San Gregorio,San Gregorio State Beach,https://www.californiabeaches.com/beach/san-gregorio-state-beach/,La Honda Rd and Cabrillo Hwy,San,CA,94074,37.322483,-122.403523,San Gregorio State Beach,State Park,http://www.parks.ca.gov/?page_id=529,"Hiking, Beachcombing, Birdwatching, Beach Walking","Restrooms, Picnic Tables, BBQs, Driftwood, Caves, Trails, Fossils",No dogs allowed on the beach,N,Fee for parking,N,"",""
4864,Northern,San Mateo,San Gregorio,Tunitas Creek Beach,https://www.californiabeaches.com/beach/tunitas-creek-beach/,Tunitas Creek Rd and Cabrillo Hwy S,Half,CA,94019,37.35698,-122.40071,"",Trust,https://openspacetrust.org/blog/tunitas-creek-beach/,"Surfing, Beach Exploration, Birdwatching","Creek, No Facilities",Dogs are not allowed on the beach,N,No fee for parking,N,"",""
4865,Northern,San Mateo,South San Francisco,Oyster Cove Beach,https://www.californiabeaches.com/beach/oyster-cove-beach/,Oyster Point Blvd,South,CA,94080,37.664098,-122.383522,Oyster Point Park and Marina,County,http://www.smharbor.com/oysterpoint/,"Swimming, Fishing, Boating","Fishing Pier, Boat Launch, Grass Park, Trails, Picnic Tables","",Y,"",N,"",Oyster Point Beach
4866,Northern,San Francisco,San Francisco,Alcatraz Island,https://www.californiabeaches.com/beach/alcatraz-island/,1398 The Embarcadero,San,CA,94133,37.826879,-122.423106,Golden Gate National Recreation Area,National Park,http://www.nps.gov/alca/,"Guided Tours, Walking, Birdwatching, Photography","Prison Tour, Bay Cruise, Museum, Bookstore, Restrooms",No dogs allowed on the island,N,"Fee includes boat tour, island entrance, and prison audio tour",N,"",""
4867,Northern,San Francisco,San Francisco,Aquatic Park Cove,https://www.californiabeaches.com/beach/aquatic-park-cove/,Beach St and Hyde St,San,CA,94109,37.807075,-122.4231,"Aquatic Park Historic District, Fort Mason, San Francisco Maritime National Historical Park, Golden Gate National Recreation Area",National Park,http://www.nps.gov/safr/planyourvisit/aquaticparkcove.htm,"Walking, Swimming, Boating","Pier, Museum, Grass Park, Walking Path, Benches, Cable Car Stop, Historic Ships","",Y,Metered parking near beach,N,"",Aquatic Park Lagoon
4868,Northern,San Francisco,San Francisco,Baker Beach San Francisco,https://www.californiabeaches.com/beach/baker-beach-san-francisco/,Bowley St and Gibson Rd,San,CA,94129,37.792968,-122.483753,Golden Gate National Recreation Area,National Park,http://www.nps.gov/prsf/planyourvisit/baker-beach.htm,"Fishing, Sunbathing, Walking, Hiking","Restrooms, Picnic Tables, Military Gun Structures",No dogs allowed on the beach,N,Free parking,Y,"",""
4869,Northern,San Francisco,San Francisco,Candlestick Point State Recreation Area,https://www.californiabeaches.com/beach/candlestick-point-state-recreation-area/,Hunters Point Expy,San,CA,94124,37.71114,-122.38019,Candlestick Point State Recreation Area,State Park,http://www.parks.ca.gov/?page_id=519,"Windsurfing, Kiteboarding, Walking, Fishing, Birdwatching, Picnicking, Biking, Kayaking","Grass Park, Trails, Paved Bike Path, Fishing Pier, Picnic Tables, BBQs, Accessible Features, Fishing Pier",Dogs allowed on leash in park and on beaches,Y,"",N,"","Windsurfer Circle, Jack Rabbit Beach"
4870,Northern,San Francisco,San Francisco,China Beach,https://www.californiabeaches.com/beach/china-beach/,340 Sea Cliff Ave,San,CA,94121,37.788313,-122.490781,"Golden Gate National Recreation Area, China Beach Park",National Park,http://www.nps.gov/goga/planyourvisit/chinabeach.htm,"Sunbathing, Picnicking, Tidepooling","Restrooms, Showers, Picnic Tables, Tide Pools, Cave",No dogs allowed on the beach,N,Free parking,Y,"",""
4871,Northern,San Francisco,San Francisco,Clipper Cove Beach On Yerba Buena Island,https://www.californiabeaches.com/beach/clipper-cove-beach-on-yerba-buena-island/,Treasure Island Rd,San,CA,94130,37.813581,-122.369957,Clipper Cove Picnic Area Park,"","",Picnicking,Grass Park,"",Y,"",N,"",""
4872,Northern,San Francisco,San Francisco,East Beach At Crissy Field,https://www.californiabeaches.com/beach/east-beach-at-crissy-field/,1199 E Beach,San,CA,94129,37.806296,-122.451808,"Crissy Field Park, Presidio, Golden Gate National Recreation Area",National Park,https://www.presidio.gov/places/east-beach,"Windsurfing, Kiteboarding, Birdwatching, Walking, Running, Biking, Sunbathing","Picnic Tables, Restrooms, Cafe, Grass Park, Bike Path, Trails, Historic Buildings, Fishing Pier",Dogs allowed off leash if under voice control,Y,Free parking,Y,"",""
4873,Northern,San Francisco,San Francisco,West Bluffs Beach At Crissy Field,https://www.californiabeaches.com/beach/west-bluffs-beach-at-crissy-field/,Marine Drive,San,CA,94129,37.80646,-122.46764,"Crissy Field Park, Fort Point National Historic Site, Presidio, Golden Gate National Recreation Area",National Park,http://www.presidio.gov/explore/Pages/crissy-field-picnic-east-beach-west-bluffs.aspx,"Windsurfing, Kiteboarding, Birdwatching, Walking, Running, Biking","Picnic Tables, Restrooms, Cafe, Historical Sites, Grass Fields, Pier, Lighthouse, Trails",Dogs allowed off leash if under voice control,Y,Free parking,Y,"",West Bluffs
4874,Northern,San Francisco,San Francisco,Fort Funston Beach,https://www.californiabeaches.com/beach/fort-funston-beach/,Skyline Blvd and John Muir Dr,San,CA,94132,37.716088,-122.504835,Golden Gate National Recreation Area,National Park,http://www.nps.gov/goga/planyourvisit/fortfunston.htm,"Hang Gliding, Hiking, Beachcombing, Equestrian Use, Beach Walking, Fishing, Biking","Trails, Viewing Platform, Toilets, Fossils, Military Ruins",Dogs allowed off leash if under voice control,Y,Free parking,Y,"",""
4875,Northern,San Francisco,San Francisco,Golden Gate Park Beach,https://www.californiabeaches.com/beach/golden-gate-park-beach/,1000 Great Highway,San,CA,94121,37.7678,-122.51176,"Golden Gate Park, Golden Gate National Recreation Area",National Park,http://sfrecpark.org/destination/golden-gate-park/,"Walking, Biking, Running, Golf, Disc Golf, Tennis, Horseshoes, Beach Walking, Birdwatching","Grass Park, Walking Paths, Golf Course, Sports Fields, Sport Courts, Botanical Garden, Japanese Garden, Museums, Fly Casting Ponds, Carousel, Kids Play Area",Dogs allowed off leash on beach if under voice control,Y,Free parking at the beach,Y,"",""
4876,Northern,San Francisco,San Francisco,Herons Head Park,https://www.californiabeaches.com/beach/herons-head-park/,Cargo Way and Jennings St.,San,CA,94124,37.73803,-122.36962,"Heron''s Head Park, Port of San Francisco",City,http://www.sfport.com/index.aspx?page=210,"Birdwatching, Walking","Picnic Tables, Bird-viewing Areas, Paved Path, Education Center",Dogs allowed on leash on trails. There is an off-leash dog area in the park.,Y,"",N,"",""
4877,Northern,San Francisco,San Francisco,Marshall Beach,https://www.californiabeaches.com/beach/marshall-beach/,Lincoln Blvd and Langdon Ct,San,CA,94129,37.801548,-122.479881,Golden Gate National Recreation Area,National Park,http://www.nps.gov/goga/,"Hiking, Sunbathing","Military Structures, Viewpoint, Trails, No Facilities",No dogs allowed on beach,N,Free parking at the Golden Gate Overlook,Y,"","Golden Gate Beach, Marshall''s"
4878,Northern,San Francisco,San Francisco,Lands End Beach,https://www.californiabeaches.com/beach/lands-end-beach/,El Camino Del Mar,San,CA,94121,37.78729,-122.506226,"Golden Gate National Recreation Area, Fort Miley, Lincoln Park",National Park,http://www.nps.gov/goga/planyourvisit/landsend.htm,"Hiking, Beach Exploration, Photography","Trails, Picnic Tables, Viewpoint, Military Gun Structures, Lighthouse, Shipwrecks, Labyrinth",Dogs allowed off leash if under voice control,Y,Free parking,Y,"",Mile Rock Beach
4879,Northern,San Francisco,San Francisco,North Baker Beach,https://www.californiabeaches.com/beach/north-baker-beach/,Bowley St and Gibson Rd,San,CA,94129,37.79743,-122.48178,Golden Gate National Recreation Area,National Park,http://www.nps.gov/prsf/planyourvisit/baker-beach.htm,"Sunbathing, Hiking","Trails, Volleyball Court, No Facilities",Dogs allowed off leash if under voice control,Y,Free parking,Y,"",""
4880,Northern,San Francisco,San Francisco,Ocean Beach San Francisco,https://www.californiabeaches.com/beach/ocean-beach-san-francisco/,Sloat Blvd and Great Hwy,San,CA,94132,37.74532,-122.50844,Golden Gate National Recreation Area,National Park,http://www.nps.gov/goga/planyourvisit/oceanbeach.htm,"Beach Walking, Walking, Running, Biking, Sunbathing, Windsurfing, Kiteboarding","Restrooms, Promenade, Paved Bike Lane, Dunes, Zoo, Fire Pits",Dogs allowed off leash if under voice control except from Sloat Blvd to Stairwell 21 where leashes are required,Y,Free parking,Y,"",""
4881,Northern,San Francisco,San Francisco,Phillip Burton Memorial Beach,https://www.californiabeaches.com/beach/phillip-burton-memorial-beach/,John Daly Blvd and California 35,Daly,CA,94015,37.707908,-122.502019,"","","","Fishing, Hiking, Beachcombing, Photography","Cave, Trails, No Facilities",Dogs allowed on leash,Y,Free parking at Fort Funston or Thornton State Beach,Y,"",""
4882,Northern,San Francisco,San Francisco,Sutro Baths,https://www.californiabeaches.com/beach/sutro-baths/,680 Point Lobos Ave,San,CA,94121,37.779611,-122.51441,Golden Gate National Recreation Area,NPS,http://www.nps.gov/goga/planyourvisit/sutro.htm,"Hiking, Photography","Historic Bath Ruins, Visitor Center, Trails, Tunnel, Rock Arch",Dogs allowed on leash,Y,Free parking,Y,"",""
4883,Northern,San Francisco,San Francisco,Treasure Island San Francisco,https://www.californiabeaches.com/beach/treasure-island-san-francisco/,Avenue of the Palms and California Ave,San,CA,94130,37.81726,-122.37267,"",City,"","","","",Y,Currently there are no fees for entering or parking on the island,N,"",Treasure Isle
4884,Northern,Marin,Bolinas,Alamere Creek Beach,https://www.californiabeaches.com/beach/alamere-creek-beach/,End of Mesa Road,Bolinas,CA,94924,37.954051,-122.783608,Point Reyes National Seashore,National Park,http://www.nps.gov/pore/,"Beach Exploration, Hiking, Beachcombing, Photography","Waterfall, Trails, No Facilities",No dogs allowed on beach,N,Free parking at trailhead,Y,"",""
4885,Northern,Marin,Bolinas,Bolinas Beach,https://www.californiabeaches.com/beach/bolinas-beach/,Brighton Ave and Cliff Rd,Bolinas,CA,94924,37.90518,-122.68426,"",City,"","Surfing, Bodyboarding, Birdwatching, Kayaking, Stand-Up Paddleboarding, Sunbathing","Restrooms, Tennis Court",Dogs allowed off leash,Y,Free street parking,Y,"",Brighton Beach
4886,Northern,Marin,Bolinas,Agate Beach County Park Bolinas,https://www.californiabeaches.com/beach/agate-beach-county-park-bolinas/,Ocean Pkwy and Elm Rd,Bolinas,CA,94924,37.897342,-122.710905,"Agate Beach County Park, Duxbury Reef State Marine Reserve",County Park,http://www.marincounty.org/depts/pk/divisions/parks/agate-beach,"Tidepooling, Wildlife Watching, Fishing","Tide Pools, Toilets, Benches, Viewpoint",Dogs allowed on leash,Y,Free parking,Y,"",""
4887,Northern,Marin,Bolinas,Palomarin Beach,https://www.californiabeaches.com/beach/palomarin-beach/,End of Mesa Road,Bolinas,CA,94924,37.930294,-122.745412,Point Reyes National Seashore,National Park,http://www.nps.gov/pore/,"Hiking, Beachcombing, Tidepooling","Restrooms, Trails, Tide Pools",No dogs allowed on beach,N,Free parking,Y,"",""
4888,Northern,Marin,Bolinas,Rca Beach,https://www.californiabeaches.com/beach/rca-beach/,499 Mesa Road,Bolinas,CA,94924,37.925881,-122.736922,"","","","Sunbathing, Beachcombing","No Facilities, Waterfall, Tide Pools",No dogs allowed on the beach,N,Free parking,Y,"",""
4889,Northern,Marin,Dillon Beach,Dillon Beach,https://www.californiabeaches.com/beach/dillon-beach/,1 Beach Avenue,Dillon,CA,94929,38.249821,-122.968021,"","Private, open to public",http://www.dillonbeachresort.com/,"Surfing, Bodyboarding, Tidepooling, Bonfires","Restrooms, Picnic Tables, Fire Pits, Cabins / Cottages, Cafe, Store, Tide Pools",Dogs allowed on leash,Y,Fee for parking at the beach,N,"",""
4890,Northern,Marin,Dillon Beach,Estero De San Antonio Beach,https://www.californiabeaches.com/beach/estero-de-san-antonio-beach/,Oceana Drive and Lelani Lane,Dillon,CA,94929,38.26924,-122.97733,Estero de San Antonio State Marine Recreational Management Area (SMRMA),State MRMA,http://www.californiampas.org/mpa-regions/north-central-coast-region,"Kayaking, Birdwatching, Waterfowl Hunting",No Facilities,No dogs allowed on the private easement trail,N,"",N,"",""
4891,Northern,Marin,Dillon Beach,Lawsons Landing Beach,https://www.californiabeaches.com/beach/lawsons-landing-beach/,137 Marine View Drive,Dillon,CA,94929,38.23525,-122.97137,"","Private, open to public",http://www.lawsonslanding.com/,"Fishing, Boating, Camping, Kayaking, Clam Digging, Crabbing, Beach Walking","Campground, Boat Rentals, Boat Launch, Dunes, Store",Dogs allowed off-leash on beach and on-leash in campground,Y,Fees for day-use and camping,N,"","Sand Point Beach, Brazil Beach"
4892,Northern,Marin,Inverness,Abbotts Lagoon Beach,https://www.californiabeaches.com/beach/abbotts-lagoon-beach/,Pierce Point Rd,Inverness,CA,94937,38.12092,-122.95739,Point Reyes National Seashore,National Park,http://www.nps.gov/pore/,"Hiking, Birdwatching, Beachcombing, Whale Watching","Restrooms, Lagoon, Trails, Dunes",No dogs allowed on trail or beach,N,Free parking at trailhead,Y,"",""
4893,Northern,Marin,Inverness,Avalis Beach,https://www.californiabeaches.com/beach/avalis-beach/,"",Inverness,CA,94937,38.230164,-122.980765,Point Reyes National Seashore,NP (Boat-in Only),http://www.nps.gov/pore/planyourvisit/campgrounds.htm,"Boating, Kayaking",Boat-in Campground,No dogs allowed on beach,N,"",N,"",""
4894,Northern,Marin,Inverness,Chicken Ranch Beach,https://www.californiabeaches.com/beach/chicken-ranch-beach/,Sir Francis Drake Blvd and Pine Hill Drive,Inverness,CA,94937,38.109958,-122.865107,Chicken Ranch Beach Park,County Beach,http://www.marincounty.org/depts/pk/divisions/parks/chicken-ranch-beach,"Kayaking, Canoeing, Stand-Up Paddleboarding, Swimming, Picnicking","Toilets, Benches",Dogs allowed on leash,Y,Free parking,Y,"",""
4895,Northern,Marin,Inverness,Chimney Rock,https://www.californiabeaches.com/beach/chimney-rock/,Sir Francis Drake Blvd and Chimney Rock Rd,Inverness,CA,94937,37.994065,-122.973274,"Point Reyes National Seashore, Point Reyes State Marine Reserve",National Park,https://www.nps.gov/pore/planyourvisit/chimney_rock.htm,"Walking, Hiking, Wildlife Watching, Whale Watching","Lighthouse, Visitor Center, Restrooms, Trails, Overlook, Wildflowers, Elephant Seal Rookery",No dogs allowed on trail or beach,N,"Free parking, fee for shuttle in winter months",Y,"",""
4896,Northern,Marin,Inverness,Drakes Beach,https://www.californiabeaches.com/beach/drakes-beach/,Drakes Beach Rd,Inverness,CA,94937,38.027359,-122.960803,"Point Reyes National Seashore, Point Reyes State Marine Reserve",National Park,http://www.nps.gov/pore/,"Beachcombing, Beach Walking, Birdwatching","Restrooms, Picnic Tables, Bookstore, Visitor Center, Bay Overlook, Lagoon",No dogs allowed on beach,N,Free parking,Y,"",""
4897,Northern,Marin,Inverness,Drakes Estero Beach,https://www.californiabeaches.com/beach/drakes-estero-beach/,17171 Sir Francis Drake Blvd,Inverness,CA,94937,38.08192,-122.93248,"Point Reyes National Seashore, Phillip Burton Wilderness Area, Drakes Estero State Marine Conservation Area",National Park,https://www.nps.gov/pore/,"Birdwatching, Wildlife Watching, Kayaking, Hiking",Restrooms,No dogs allowed,N,Free parking,Y,"",Drakes Bay
4898,Northern,Marin,Inverness,Driftwood Beach,https://www.californiabeaches.com/beach/driftwood-beach/,Pierce Point Rd,Inverness,CA,94937,38.194629,-122.965224,"Point Reyes National Seashore, Tule Elk Reserve",National Park,http://www.nps.gov/pore/,"Beach Exploration, Hiking, Wildlife Watching","Trails, Elk Herds, No Facilities",No dogs allowed on trail,N,Free parking at trailhead,Y,"",""
4899,Northern,Marin,Inverness,Duck Beach,https://www.californiabeaches.com/beach/duck-beach/,"",Inverness,CA,94937,38.235142,-122.985117,Point Reyes National Seashore,NP (Boat-in Only),http://www.nps.gov/pore/planyourvisit/campgrounds.htm,"Boating, Kayaking",Boat-in Campground,No dogs allowed on beach,N,"",N,"",""
4900,Northern,Marin,Inverness,Duck Cove Beach,https://www.californiabeaches.com/beach/duck-cove-beach/,Marshall Beach Rd and Duck Cove Rd,Inverness,CA,94937,38.143315,-122.901161,"","National Park, Closed","","",No Public Facilities,"",Y,"",N,"",""
4901,Northern,Marin,Inverness,Elk Fence North Beach,https://www.californiabeaches.com/beach/elk-fence-north-beach/,"",Inverness,CA,94937,38.181025,-122.930574,Point Reyes National Seashore,NP (Boat-in Only),http://www.nps.gov/pore/planyourvisit/campgrounds.htm,"Boating, Kayaking",Boat-in Campground,Dogs allowed on beach if brought in by boat,Y,"",N,"",""
4902,Northern,Marin,Inverness,Elk Fence South Beach,https://www.californiabeaches.com/beach/elk-fence-south-beach/,"",Inverness,CA,94937,38.17625,-122.92693,Point Reyes National Seashore,NP (Boat-in Only),http://www.nps.gov/pore/planyourvisit/campgrounds.htm,"Boating, Kayaking",Boat-in Campground,Dogs allowed on beach if brought in by boat,Y,"",N,"",""
4903,Northern,Marin,Inverness,Fruit Tree Beach,https://www.californiabeaches.com/beach/fruit-tree-beach/,"",Inverness,CA,94937,38.156471,-122.907245,Point Reyes National Seashore,NP (Boat-in Only),http://www.nps.gov/pore/planyourvisit/campgrounds.htm,"Boating, Kayaking",Boat-in Campground,Dogs allowed on beach if brought in by boat,Y,"",N,"",""
4904,Northern,Marin,Inverness,Hearts Desire Beach Tomales Bay State Park,https://www.californiabeaches.com/beach/hearts-desire-beach-tomales-bay-state-park/,1208 Pierce Point Road,Inverness,CA,94937,38.132443,-122.893247,Tomales Bay State Park,State Park,http://www.parks.ca.gov/?page_id=470,"Swimming, Boating, Kayaking, Hiking, Picnicking, Clam Digging, Birdwatching","Restrooms, Picnic Tables, BBQs, Hand-carry Boat Launch, Swimming Area, Trails, Accessible Features",No dogs allowed on the beach or the trails,N,Fee for parking,N,"",""
4905,Northern,Marin,Inverness,Indian Beach Tomales Bay State Park,https://www.californiabeaches.com/beach/indian-beach-tomales-bay-state-park/,1208 Pierce Point Road,Inverness,CA,94937,38.13765,-122.89656,Tomales Bay State Park,State Park,http://www.parks.ca.gov/?page_id=470,"Hiking, Birdwatching","Toilet, Interpretive Trail, Wetlands",No dogs allowed on the beach or the trails,N,Fee for parking,N,"",""
4906,Northern,Marin,Inverness,Jacks Beach,https://www.californiabeaches.com/beach/jacks-beach/,"",Inverness,CA,94937,38.208444,-122.959194,Point Reyes National Seashore,NP (Boat-in Only),http://www.nps.gov/pore/planyourvisit/campgrounds.htm,"Boating, Kayaking",Boat-in Campground,No dogs allowed on beach,N,"",N,"",""
4907,Northern,Marin,Inverness,Kehoe Beach,https://www.californiabeaches.com/beach/kehoe-beach/,Pierce Point Rd,Inverness,CA,94937,38.15557,-122.94921,Point Reyes National Seashore,National Park,http://www.nps.gov/pore/,"Hiking, Beachcombing, Beach Walking","Restrooms, Dunes, Trails",Dogs allowed on leash,Y,Free parking,Y,"",""
4908,Northern,Marin,Inverness,Kilkenny Beach,https://www.californiabeaches.com/beach/kilkenny-beach/,"",Inverness,CA,94937,38.145948,-122.904147,Point Reyes National Seashore,NP (Boat-in Only),http://www.nps.gov/pore/planyourvisit/campgrounds.htm,"Boating, Kayaking",Boat-in Campground,Dogs allowed on beach if brought in by boat,Y,"",N,"",""
4909,Northern,Marin,Inverness,Long Cove Beach,https://www.californiabeaches.com/beach/long-cove-beach/,"",Inverness,CA,94937,38.151908,-122.909156,Point Reyes National Seashore,NP (Boat-in Only),http://www.nps.gov/pore/planyourvisit/campgrounds.htm,"Boating, Kayaking",Boat-in Campground,Dogs allowed on beach if brought in by boat,Y,"",N,"",""
4910,Northern,Marin,Inverness,Marshall Beach Tomales Bay,https://www.californiabeaches.com/beach/marshall-beach-tomales-bay/,Marshall Beach Rd,Inverness,CA,94937,38.162408,-122.915681,Point Reyes National Seashore,National Park,http://www.nps.gov/pore/,"Hiking, Boating, Kayaking, Mountain Biking","Toilets, Boat-in Campground",Dogs allowed on beach if brought in by boat,Y,"",N,"",""
4911,Northern,Marin,Inverness,Mcclures Beach,https://www.californiabeaches.com/beach/mcclures-beach/,Pierce Point Rd,Inverness,CA,94937,38.187932,-122.964469,Point Reyes National Seashore,National Park,http://www.nps.gov/pore/,"Hiking, Beachcombing","Restrooms, Tide Pools, Elk, Trail",No dogs allowed on trail or beach,N,Free parking,Y,"",Pierce Point Beach
4912,Northern,Marin,Inverness,No Name Beach,https://www.californiabeaches.com/beach/no-name-beach/,"",Inverness,CA,94937,38.169235,-122.92156,Point Reyes National Seashore,NP (Boat-in Only),http://www.nps.gov/pore/planyourvisit/campgrounds.htm,"Boating, Kayaking",Boat-in Campground,Dogs allowed on beach if brought in by boat,Y,"",N,"",""
4913,Northern,Marin,Inverness,North Blue Gum Beach,https://www.californiabeaches.com/beach/north-blue-gum-beach/,"",Inverness,CA,94937,38.226533,-122.977323,Point Reyes National Seashore,NP (Boat-in Only),http://www.nps.gov/pore/planyourvisit/campgrounds.htm,"Boating, Kayaking",Boat-in Campground,No dogs allowed on beach,N,"",N,"",""
4914,Northern,Marin,Inverness,Pebble Beach Tomales Bay State Park,https://www.californiabeaches.com/beach/pebble-beach-tomales-bay-state-park/,1208 Pierce Point Road,Inverness,CA,94937,38.128776,-122.887223,Tomales Bay State Park,State Park,http://www.parks.ca.gov/?page_id=470,Hiking,"Toilets, Trails",No dogs allowed on the beach or the trails,N,Fee for parking,N,"",""
4915,Northern,Marin,Inverness,Pelican North Beach,https://www.californiabeaches.com/beach/pelican-north-beach/,"",Inverness,CA,94937,38.188726,-122.936693,Point Reyes National Seashore,NP (Boat-in Only),http://www.nps.gov/pore/planyourvisit/campgrounds.htm,"Boating, Kayaking",Boat-in Campground,No dogs allowed on beach,N,"",N,"",""
4916,Northern,Marin,Inverness,Pita Beach,https://www.californiabeaches.com/beach/pita-beach/,"",Inverness,CA,94937,38.202997,-122.950438,Point Reyes National Seashore,NP (Boat-in Only),http://www.nps.gov/pore/planyourvisit/campgrounds.htm,"Boating, Kayaking",Boat-in Campground,No dogs allowed on beach,N,"",N,"",""
4917,Northern,Marin,Inverness,Point Reyes Lighthouse,https://www.californiabeaches.com/beach/point-reyes-lighthouse/,27000 Sir Francis Drake Blvd,Inverness,CA,94937,37.995768,-123.023108,Point Reyes National Seashore,National Park,https://www.nps.gov/pore/planyourvisit/lighthouse.htm,"Photography, Whale Watching","Lighthouse, Visitor Center, Restrooms",No dogs allowed,N,"Free parking, fee for shuttle in winter months",Y,415-669-1534,""
4918,Northern,Marin,Inverness,Point Reyes North Beach,https://www.californiabeaches.com/beach/point-reyes-north-beach/,Sir Francis Drake Blvd,Inverness,CA,94937,38.078942,-122.974847,Point Reyes National Seashore,National Park,http://www.nps.gov/pore/,"Beachcombing, Beach Walking","Restrooms, Driftwood, Dunes",Dogs allowed on leash,Y,Free parking,Y,"",""
4919,Northern,Marin,Inverness,Point Reyes South Beach,https://www.californiabeaches.com/beach/point-reyes-south-beach/,Sir Francis Drake Blvd,Inverness,CA,94937,38.04879,-122.988725,Point Reyes National Seashore,National Park,http://www.nps.gov/pore/,"Beachcombing, Beach Walking","Restrooms, Driftwood, Dunes",Dogs allowed on leash,Y,Free parking,Y,"",""
4920,Northern,Marin,Inverness,Sacramento Landing Beach,https://www.californiabeaches.com/beach/sacramento-landing-beach/,Marshall Beach Rd and Sacramento Landing Rd,Inverness,CA,94937,38.14957,-122.905823,"Point Reyes National Seashore, Sacramento Landing Marine Research Station","National Park, Closed","","",No Public Facilities,"",Y,"",N,"",""
4921,Northern,Marin,Inverness,Shallow Beach,https://www.californiabeaches.com/beach/shallow-beach/,Pierce Point Rd and Shallow Beach Rd,Inverness,CA,94937,38.123488,-122.882442,"",Private Beach,"",Hiking,"Trails, No Public Facilities",No dogs allowed on trails,N,Free parking,Y,"",""
4922,Northern,Marin,Inverness,Shell Beach Tomales Bay State Park,https://www.californiabeaches.com/beach/shell-beach-tomales-bay-state-park/,255 Camino Del Mar,Inverness,CA,94937,38.116585,-122.87351,Tomales Bay State Park,State Park,http://www.parks.ca.gov/?page_id=470,"Hiking, Swimming","Toilet, Trails, Wetlands",No dogs allowed,N,Free parking,Y,"",""
4923,Northern,Marin,Inverness,South Blue Gum Beach,https://www.californiabeaches.com/beach/south-blue-gum-beach/,"",Inverness,CA,94937,38.221034,-122.970217,Point Reyes National Seashore,NP (Boat-in Only),http://www.nps.gov/pore/planyourvisit/campgrounds.htm,"Boating, Kayaking",Boat-in Campground,No dogs allowed on beach,N,"",N,"",""
4924,Northern,Marin,Inverness,Tomales Beach,https://www.californiabeaches.com/beach/tomales-beach/,"",Inverness,CA,94937,38.17391,-122.92373,Point Reyes National Seashore,NP (Boat-in Only),http://www.nps.gov/pore/,"Boating, Kayaking","Toilets, Boat-in Campground",Dogs allowed on beach if brought in by boat,Y,"",N,"",""
4925,Northern,Marin,Inverness,Wall Beach,https://www.californiabeaches.com/beach/wall-beach/,"",Inverness,CA,94937,38.192573,-122.941467,Point Reyes National Seashore,NP (Boat-in Only),http://www.nps.gov/pore/planyourvisit/campgrounds.htm,"Boating, Kayaking",Boat-in Campground,No dogs allowed on beach,N,"",N,"",""
4926,Northern,Marin,Inverness,White Gulch Beach,https://www.californiabeaches.com/beach/white-gulch-beach/,"",Inverness,CA,94937,38.193607,-122.949476,Point Reyes National Seashore,NP (Boat-in Only),http://www.nps.gov/pore/planyourvisit/campgrounds.htm,"Boating, Kayaking",Boat-in Campground,No dogs allowed on beach,N,"",N,"",""
4927,Northern,Marin,Marshall,Alan Sieroty Beach At Millerton Point,https://www.californiabeaches.com/beach/alan-sieroty-beach-at-millerton-point/,Shoreline Hwy,Marshall,CA,94940,38.107123,-122.847569,Tomales Bay State Park,State Park,http://www.parks.ca.gov/?page_id=470,"Walking, Birdwatching","Restrooms, Picnic Tables, Accessible Features",No dogs allowed,N,Free parking,Y,"",""
4928,Northern,Marin,Marshall,Hog Island,https://www.californiabeaches.com/beach/hog-island/,23240 Highway 1,Marshall,CA,94940,38.197106,-122.935394,Point Reyes National Seashore,National Park,http://www.nps.gov/pore/parkmgmt/upload/lawsandpolicies_compendium_hogislandmap.pdf,"Boating, Kayaking",No Facilities,No dogs allowed on the islands,N,Fee for parking at the boat launch,N,"",""
4929,Northern,Marin,Marshall,Nicks Cove And Miller Boat Launch,https://www.californiabeaches.com/beach/nicks-cove-and-miller-boat-launch/,23240 Highway 1,Marshall,CA,94940,38.199916,-122.921503,Miller Boat Launch,County Facility,http://www.marincounty.org/depts/pk/divisions/parks/miller-boat-launch,"Fishing, Boating, Kayaking, Canoeing","Boat Launch, Restaurant, Bar, Cottages, Pier",Dogs allowed on leash,Y,"Free parking at restaurant, fees to park at or above the boat launch",Y,"",Miller Park
4930,Northern,Marin,Mill Valley,Rodeo Beach,https://www.californiabeaches.com/beach/rodeo-beach/,1049 Mitchell Rd,Sausalito,CA,94965,37.830533,-122.537033,Golden Gate National Recreation Area,National Park,http://www.nps.gov/goga/,"Hiking, Birdwatching, Surfing, Rockhounding","Restrooms, Trails, Picnic Tables, Lagoon",Dogs allowed off leash if under voice control,Y,Free parking,Y,"",""
4931,Northern,Marin,Mill Valley,South Rodeo Beach,https://www.californiabeaches.com/beach/south-rodeo-beach/,Field Rd,Sausalito,CA,94965,37.825127,-122.534265,Golden Gate National Recreation Area,National Park,http://www.nps.gov/goga/,"Hiking, Beach Exploration, Photography, Birdwatching","Trails, Military Structures, Rock Arch, No Facilities",Dogs allowed off leash if under voice control,Y,Free parking,Y,"",""
4932,Northern,Marin,Mill Valley,Tennessee Cove Beach,https://www.californiabeaches.com/beach/tennessee-cove-beach/,Tennessee Valley Rd,Mill,CA,94941,37.841563,-122.551669,Golden Gate National Recreation Area,National Park,http://www.nps.gov/goga/planyourvisit/tennessee_valley.htm,"Hiking, Beach Exploration, Mountain Biking, Equestrian Use","Restrooms, Trails",No dogs allowed on main trail or beach,N,Free parking,Y,"",""
4933,Northern,Marin,Muir Beach,Little Beach Muir Beach,https://www.californiabeaches.com/beach/little-beach-muir-beach/,200 Pacific Way,Muir,CA,94965,37.859659,-122.58027,"",County,http://www.nps.gov/goga/planyourvisit/muirbeach.htm,Sunbathing,No Facilities,Dogs allowed off leash if under voice control,Y,Free parking at Muir Beach,Y,"",""
4934,Northern,Marin,Muir Beach,Muir Beach,https://www.californiabeaches.com/beach/muir-beach/,200 Pacific Way,Muir,CA,94965,37.859525,-122.576134,"Muir Beach Park, Golden Gate National Recreation Area",National Park,http://www.nps.gov/goga/planyourvisit/muirbeach.htm,"Hiking, Beachcombing, Birdwatching, Fishing, Sunbathing, Bonfires, Picnicking","Restrooms, Picnic Tables, Trails, Fire Pits",Dogs allowed off leash if under voice control,Y,Free parking,Y,"",Formerly known as Bello Beach
4935,Northern,Marin,Muir Beach,Pirates Cove Beach Marin,https://www.californiabeaches.com/beach/pirates-cove-beach-marin/,200 Pacific Way,Muir,CA,94965,37.852059,-122.561938,Golden Gate National Recreation Area,National Park,http://www.nps.gov/goga/,"Beach Exploration, Hiking","Trails, No Facilities",Dogs allowed on trail from Muir Beach,Y,Free parking at adjacent trailheads,Y,"",""
4936,Northern,Marin,Muir Beach,Slide Ranch Beach,https://www.californiabeaches.com/beach/slide-ranch-beach/,2025 Shoreline Hwy,Muir,CA,94965,37.875105,-122.601591,"Slide Ranch Educational Center, Golden Gate National Recreation Area",Non-profit and National Park,http://www.slideranch.org/,"Hiking, Fishing, Picnicking","Restrooms, Picnic Tables, Trails","No dogs allowed at the ranch, on trails, or at the beach",N,Free parking,Y,"",""
4937,Northern,Marin,Olema,Alamere Creek Beach,https://www.californiabeaches.com/beach/alamere-creek-beach/,End of Mesa Road,Bolinas,CA,94924,37.954051,-122.783608,Point Reyes National Seashore,National Park,http://www.nps.gov/pore/,"Beach Exploration, Hiking, Beachcombing, Photography","Waterfall, Trails, No Facilities",No dogs allowed on beach,N,Free parking at trailhead,Y,"",""
4938,Northern,Marin,Olema,Arch Rock Beach,https://www.californiabeaches.com/beach/arch-rock-beach/,1 Bear Valley Rd,Point,CA,94956,37.987876,-122.813775,Point Reyes National Seashore,National Park,http://www.nps.gov/pore/,"Hiking, Mountain Biking, Beachcombing","Rock Arch, Trails",No dogs allowed on beach,N,Free parking at the trailhead,Y,"",""
4939,Northern,Marin,Olema,Kelham Beach,https://www.californiabeaches.com/beach/kelham-beach/,1 Bear Valley Rd,Point,CA,94956,37.99672,-122.82142,Point Reyes National Seashore,National Park,http://www.nps.gov/pore/,"Hiking, Beachcombing, Mountain Biking","Trails, Rock Arch",No dogs allowed on beach,N,Free parking at the trailhead,Y,"",""
4940,Northern,Marin,Olema,Sculptured Beach,https://www.californiabeaches.com/beach/sculptured-beach/,1 Bear Valley Rd,Point,CA,94956,38.01154,-122.847305,Point Reyes National Seashore,National Park,http://www.nps.gov/pore/,"Hiking, Tidepooling, Beachcombing","Tide Pools, Nature Rock Features, Trails",No dogs allowed on beach,N,Free parking at the trailhead,Y,"",""
4941,Northern,Marin,Olema,Secret Beach Of Point Reyes,https://www.californiabeaches.com/beach/secret-beach-of-point-reyes/,1 Bear Valley Rd,Point,CA,94956,38.007108,-122.839134,Point Reyes National Seashore,National Park,http://www.nps.gov/pore/,"Hiking, Beachcombing, Beach Exploration","Rock Arch, Cave, Natural Amphitheater, Waterfall",No dogs allowed on beach,N,"",N,"","Secret Cave Beach, Point Reyes Crater"
4942,Northern,Marin,Olema,Wildcat Beach,https://www.californiabeaches.com/beach/wildcat-beach/,1 Bear Valley Rd,Point,CA,94956,37.969377,-122.791281,Point Reyes National Seashore,National Park,http://www.nps.gov/pore/,"Hiking, Beachcombing, Mountain Biking, Backpacking, Camping","Trails, Waterfall, Backcountry Campground",No dogs allowed on beach,N,Free parking at trailhead,Y,"",""
4943,Northern,Marin,Point Reyes Station,Chimney Rock,https://www.californiabeaches.com/beach/chimney-rock/,Sir Francis Drake Blvd and Chimney Rock Rd,Inverness,CA,94937,37.994065,-122.973274,"Point Reyes National Seashore, Point Reyes State Marine Reserve",National Park,https://www.nps.gov/pore/planyourvisit/chimney_rock.htm,"Walking, Hiking, Wildlife Watching, Whale Watching","Lighthouse, Visitor Center, Restrooms, Trails, Overlook, Wildflowers, Elephant Seal Rookery",No dogs allowed on trail or beach,N,"Free parking, fee for shuttle in winter months",Y,"",""
4944,Northern,Marin,Point Reyes Station,Drakes Beach,https://www.californiabeaches.com/beach/drakes-beach/,Drakes Beach Rd,Inverness,CA,94937,38.027359,-122.960803,"Point Reyes National Seashore, Point Reyes State Marine Reserve",National Park,http://www.nps.gov/pore/,"Beachcombing, Beach Walking, Birdwatching","Restrooms, Picnic Tables, Bookstore, Visitor Center, Bay Overlook, Lagoon",No dogs allowed on beach,N,Free parking,Y,"",""
4945,Northern,Marin,Point Reyes Station,Drakes Estero Beach,https://www.californiabeaches.com/beach/drakes-estero-beach/,17171 Sir Francis Drake Blvd,Inverness,CA,94937,38.08192,-122.93248,"Point Reyes National Seashore, Phillip Burton Wilderness Area, Drakes Estero State Marine Conservation Area",National Park,https://www.nps.gov/pore/,"Birdwatching, Wildlife Watching, Kayaking, Hiking",Restrooms,No dogs allowed,N,Free parking,Y,"",Drakes Bay
4946,Northern,Marin,Point Reyes Station,Limantour Beach,https://www.californiabeaches.com/beach/limantour-beach/,1390 Limantour Spit Rd,Point,CA,94956,38.02556,-122.88322,"Point Reyes National Seashore, Estero de Limantour State Marine Reserve",National Park,http://www.nps.gov/pore/,"Hiking, Birdwatching, Wildlife Watching, Beachcombing, Beach Walking, Swimming","Restrooms, Hostel, Wetlands, Trails",Dogs allowed on leash south of the beach access,Y,Free parking,Y,"",""
4947,Northern,Marin,Point Reyes Station,Point Reyes Lighthouse,https://www.californiabeaches.com/beach/point-reyes-lighthouse/,27000 Sir Francis Drake Blvd,Inverness,CA,94937,37.995768,-123.023108,Point Reyes National Seashore,National Park,https://www.nps.gov/pore/planyourvisit/lighthouse.htm,"Photography, Whale Watching","Lighthouse, Visitor Center, Restrooms",No dogs allowed,N,"Free parking, fee for shuttle in winter months",Y,415-669-1534,""
4948,Northern,Marin,Point Reyes Station,Point Reyes North Beach,https://www.californiabeaches.com/beach/point-reyes-north-beach/,Sir Francis Drake Blvd,Inverness,CA,94937,38.078942,-122.974847,Point Reyes National Seashore,National Park,http://www.nps.gov/pore/,"Beachcombing, Beach Walking","Restrooms, Driftwood, Dunes",Dogs allowed on leash,Y,Free parking,Y,"",""
4949,Northern,Marin,Point Reyes Station,Point Reyes South Beach,https://www.californiabeaches.com/beach/point-reyes-south-beach/,Sir Francis Drake Blvd,Inverness,CA,94937,38.04879,-122.988725,Point Reyes National Seashore,National Park,http://www.nps.gov/pore/,"Beachcombing, Beach Walking","Restrooms, Driftwood, Dunes",Dogs allowed on leash,Y,Free parking,Y,"",""
4950,Northern,Marin,Point Reyes Station,Santa Maria Beach,https://www.californiabeaches.com/beach/santa-maria-beach/,1390 Limantour Spit Rd,Point,CA,94956,38.0167,-122.85644,Point Reyes National Seashore,National Park,http://www.nps.gov/pore/,"Hiking, Beachcombing, Camping","Backcountry Campground, Toilets, Potable Water",Dogs allowed on leash,Y,"Fee for camping, free parking at trailhead",Y,"",Coast Camp Beach
4951,Northern,Marin,Point Reyes Station,Sculptured Beach,https://www.californiabeaches.com/beach/sculptured-beach/,1 Bear Valley Rd,Point,CA,94956,38.01154,-122.847305,Point Reyes National Seashore,National Park,http://www.nps.gov/pore/,"Hiking, Tidepooling, Beachcombing","Tide Pools, Nature Rock Features, Trails",No dogs allowed on beach,N,Free parking at the trailhead,Y,"",""
4952,Northern,Marin,Point Reyes Station,Secret Beach Of Point Reyes,https://www.californiabeaches.com/beach/secret-beach-of-point-reyes/,1 Bear Valley Rd,Point,CA,94956,38.007108,-122.839134,Point Reyes National Seashore,National Park,http://www.nps.gov/pore/,"Hiking, Beachcombing, Beach Exploration","Rock Arch, Cave, Natural Amphitheater, Waterfall",No dogs allowed on beach,N,"",N,"","Secret Cave Beach, Point Reyes Crater"
4953,Northern,Marin,Point Reyes Station,Tomales Bay Trail,https://www.californiabeaches.com/beach/tomales-bay-trail/,12305 Highway 1,Point,CA,94956,38.08076,-122.826091,"Golden Gate National Recreation Area, Tomales Bay Ecological Reserve",National Park,http://www.nps.gov/goga/,"Hiking, Birdwatching","Trails, Wetlands",No dogs allowed,N,Free parking,Y,"",""
4954,Northern,Marin,San Rafael,China Camp State Park Beach,https://www.californiabeaches.com/beach/china-camp-state-park-beach/,N San Pedro Rd and China Camp Village Rd,San,CA,94901,38.000396,-122.461062,China Camp State Park,State Park,http://www.parks.ca.gov/?page_id=466,"Hiking, Biking, Camping, Fishing, Swimming, Picnicking, Windsurfing, Kayaking, Canoeing, Stand-Up Paddleboarding, Photography, Equestrian Use","Trails, RV Park, Tent Campground, Grass Park, Museum, Picnic Tables, BBQs, Boat Launch, Restrooms, Showers, Pier, Accessible Features","Dogs allowed on leash in park and on the beach, but not on the trails",Y,Fee for parking,N,"",""
4955,Northern,Marin,San Rafael,Mcnears Beach Park,https://www.californiabeaches.com/beach/mcnears-beach-park/,201 Cantera Way,San,CA,94901,37.992198,-122.451799,McNears Beach County Park,County,http://www.marincounty.org/Depts/PK/Divisions/Parks/McNears-Beach,"Fishing, Kayaking, Canoeing, Swimming, Walking, Tennis, Picnicking, Stand-Up Paddleboarding, Birdwatching","Fishing Pier, Picnic Tables, BBQs, Group Picnic Area, Restrooms, Tennis Courts, Grass Park, Swimming Pool",No dogs allowed in the park,N,Fees for parking,N,"",""
4956,Northern,Marin,Sausalito,Black Sands Beach Marin Headlands,https://www.californiabeaches.com/beach/black-sands-beach-marin-headlands/,Conzelman Rd,Sausalito,CA,94965,37.824239,-122.508632,Golden Gate National Recreation Area,National Park,http://www.nps.gov/goga/,"Hiking, Photography, Beach Exploration, Fishing","Restrooms, Trails, Viewpoint",No dogs allowed,N,Free parking,Y,"",Bonita Cove Beach
4957,Northern,Marin,Sausalito,Fort Baker Beach On Horseshoe Cove,https://www.californiabeaches.com/beach/fort-baker-beach-on-horseshoe-cove/,557 McReynolds Rd,Sausalito,CA,94965,37.833869,-122.476532,Golden Gate National Recreation Area,National Park,http://www.nps.gov/goga/planyourvisit/fort-baker.htm,"Sailing, Kayaking, Fishing, Crabbing, Walking, Wildlife Watching, Picnicking","Fishing Pier, Military Sites, Historic Lodge, Museum, Trails, Restrooms, Picnic Tables, Cell Phone Tour","Dogs allowed on leash on Fort Baker grounds, except at Chapel Trail and the pier",Y,Free parking,Y,"",Horseshoe Bay
4958,Northern,Marin,Sausalito,Kirby Cove Beach,https://www.californiabeaches.com/beach/kirby-cove-beach/,Conzelman Rd,Sausalito,CA,94965,37.826895,-122.49014,Golden Gate National Recreation Area,National Park,http://www.nps.gov/goga/planyourvisit/kirby.htm,"Camping, Photography, Hiking, Biking","Tent Campground, Historic Military Sites, Viewpoint, Picnic Tables, BBQs, Restrooms",No dogs allowed at the cove,N,"Fee for camping, free parking",Y,"",""
4959,Northern,Marin,Sausalito,Point Bonita Lighthouse,https://www.californiabeaches.com/beach/point-bonita-lighthouse/,Field Rd and Conzelman Rd,Sausalito,CA,94965,37.815683,-122.529567,Golden Gate National Recreation Area,National Park,http://www.nps.gov/goga/pobo.htm,"Hiking, Photography","Lighthouse, Rock Arch, Trails, Restrooms, Military Structures, Picnic Tables, Cell Phone Tour",No dogs allowed,N,No fee for parking or lighthouse visitation,N,(415) 331-1540,""
4960,Northern,Marin,Sausalito,Rodeo Beach,https://www.californiabeaches.com/beach/rodeo-beach/,1049 Mitchell Rd,Sausalito,CA,94965,37.830533,-122.537033,Golden Gate National Recreation Area,National Park,http://www.nps.gov/goga/,"Hiking, Birdwatching, Surfing, Rockhounding","Restrooms, Trails, Picnic Tables, Lagoon",Dogs allowed off leash if under voice control,Y,Free parking,Y,"",""
4961,Northern,Marin,Sausalito,Schoonmaker Beach,https://www.californiabeaches.com/beach/schoonmaker-beach/,99 Liberty Ship Way,Sausalito,CA,94965,37.863779,-122.489443,Schoonmaker Point Marina,City,http://www.schoonmakermarina.com/,"Kayaking, Stand-Up Paddleboarding, Volleyball, Bocce Ball, Tennis","Marina, Rentals, Restrooms, Potable Water, Volleyball Courts, Bocce Ball Courts, Tennis Courts",No dogs allowed on beach,N,Free parking,Y,"",Kayak Beach
4962,Northern,Marin,Sausalito,South Rodeo Beach,https://www.californiabeaches.com/beach/south-rodeo-beach/,Field Rd,Sausalito,CA,94965,37.825127,-122.534265,Golden Gate National Recreation Area,National Park,http://www.nps.gov/goga/,"Hiking, Beach Exploration, Photography, Birdwatching","Trails, Military Structures, Rock Arch, No Facilities",Dogs allowed off leash if under voice control,Y,Free parking,Y,"",""
4963,Northern,Marin,Stinson Beach,Red Rock Beach,https://www.californiabeaches.com/beach/red-rock-beach/,Shoreline Hwy,Stinson,CA,94970,37.88898,-122.632693,Mount Tamalpais State Park,State Park,http://www.parks.ca.gov/?page_id=471,"Beach Exploration, Rock Climbing, Bouldering","Hot Springs, No Facilities","",Y,Free parking,Y,"","Little Stinson, Mickey''s, Redrock Beach"
4964,Northern,Marin,Stinson Beach,Seadrift Beach,https://www.californiabeaches.com/beach/seadrift-beach/,2 Dipsea Rd,Stinson,CA,94970,37.90697,-122.6792,"",Public below high tide line,"","Beach Walking, Birdwatching, Fishing",No Public Facilities,Dogs allowed on leash below the mean high tide level,Y,Free parking at Upton Beach Access,Y,"",Sea Drift Beach
4965,Northern,Marin,Stinson Beach,Steep Ravine Beach,https://www.californiabeaches.com/beach/steep-ravine-beach/,3301 Shoreline Hwy,Stinson,CA,94970,37.884919,-122.628361,"Mount Tamalpais State Park, Steep Ravine Environmental Campground",State Park,http://www.parks.ca.gov/?page_id=471,"Beach Exploration, Walking, Camping","Campground, Cabins, Restrooms, Driftwood, Hot Springs",No dogs allowed,N,Free shoulder parking along highway,Y,"",""
4966,Northern,Marin,Stinson Beach,Stinson Beach,https://www.californiabeaches.com/beach/stinson-beach/,3514 Shoreline Hwy,Stinson,CA,94970,37.895656,-122.639639,"Stinson Beach Park, Golden Gate National Recreation Area",National Park,http://www.nps.gov/goga/stbe.htm,"Beachcombing, Beach Walking, Picnicking, Fishing, Surfing, Sunbathing, Swimming","Restrooms, Showers, Picnic Tables, BBQs, Lifeguard","No dogs allowed on beach, but ok north of the north beach access (at Upton Beach)",N,Free parking,Y,"",""
4967,Northern,Marin,Stinson Beach,Upton Beach,https://www.californiabeaches.com/beach/upton-beach/,3 Walla Vista,Stinson,CA,94970,37.902935,-122.65338,"",County,https://www.marincountyparks.org/parkspreserves/parks/upton-beach,"Beach Walking, Sunbathing, Picnicking, Fishing, Surfing, Swimming",No Facilities,Dogs allowed on leash,Y,Free parking,Y,"",Seadrift Beach
4968,Northern,Marin,Tiburon,Angel Island Perles Beach,https://www.californiabeaches.com/beach/angel-island-perles-beach/,Tiburon Blvd and Main St,Tiburon,CA,94920,37.854782,-122.437831,Angel Island State Park,State Park,http://www.parks.ca.gov/?page_id=468,"Hiking, Biking, Boating, Guided Tours, Birdwatching, Camping","Campground, Trails, Boat Slips, Boat Buoys, Historical Sites, Restaurant",Dogs are not allowed on the island,N,"Fee for ferry, park entry, and parking at dock",N,"",""
4969,Northern,Marin,Tiburon,Angel Island Quarry Beach,https://www.californiabeaches.com/beach/angel-island-quarry-beach/,Tiburon Blvd and Main St,Tiburon,CA,94920,37.85994,-122.420493,Angel Island State Park,State Park,http://www.parks.ca.gov/?page_id=468,"Hiking, Biking, Boating, Guided Tours, Birdwatching, Camping","Campground, Trails, Boat Slips, Boat Buoys, Historical Sites, Restaurant",Dogs are not allowed on the island,N,"Fee for ferry, park entry, and parking at dock",N,"",""
4970,Northern,Marin,Tiburon,Paradise Beach Park,https://www.californiabeaches.com/beach/paradise-beach-park/,3450 Paradise Dr,Tiburon,CA,94920,37.89378,-122.456749,Paradise Beach County Park,County,http://www.marincounty.org/depts/pk/divisions/parks/paradise-beach,"Fishing, Picnicking, Kayaking, Canoeing","Fishing Pier, Picnic Tables, Group Picnic Area, BBQs, Restrooms, Grass Park, Horseshoe Court",No dogs allowed in the park,N,Fees for parking,N,"",Paradise Cove
4971,Northern,Sonoma,Bodega Bay,Arched Rock Beach,https://www.californiabeaches.com/beach/arched-rock-beach/,Highway 1,Bodega,CA,94923,38.367105,-123.072217,Sonoma Coast State Park,State Park,http://www.parks.ca.gov/?page_id=451,"Fishing, Photography, Beach Exploration","Rock Arch, No Facilities",No dogs allowed on the beach,N,Free parking,Y,"",""
4972,Northern,Sonoma,Bodega Bay,Bird Walk Coastal Access,https://www.californiabeaches.com/beach/bird-walk-coastal-access/,355 Highway 1,Bodega,CA,94923,38.31964,-123.03838,Bird Walk Coastal Access Regional Park,County,http://parks.sonomacounty.ca.gov/Get_Outdoors/Parks/Bird_Walk_Coastal_Access_Trail.aspx,"Birdwatching, Walking, Biking","Picnic Tables, Toilets, Trails, Benches, Accessible Features",Dogs allowed on leash,Y,Fee for parking,N,"",""
4973,Northern,Sonoma,Bodega Bay,Bodega Head Beach,https://www.californiabeaches.com/beach/bodega-head-beach/,Westshore Rd,Bodega,CA,94923,38.304457,-123.064604,Sonoma Coast State Park,State Park,http://www.parks.ca.gov/?page_id=451,"Whale Watching, Hiking, Picnicking","Restrooms, Picnic Tables, Trails, Rock Arch, Accessible Features",No dogs allowed on the beach or trails,N,Free parking,Y,"",""
4974,Northern,Sonoma,Bodega Bay,Campbell Cove,https://www.californiabeaches.com/beach/campbell-cove/,Westshore Rd,Bodega,CA,94923,38.304714,-123.057223,Sonoma Coast State Park,State Park,http://www.parks.ca.gov/?page_id=451,Birdwatching,"Restrooms, Picnic Tables, Birding Platform, Accessible Features",Dogs are allowed on the beach,Y,"",N,"",""
4975,Northern,Sonoma,Bodega Bay,Carmet Beach,https://www.californiabeaches.com/beach/carmet-beach/,4790 N Hwy 1,Bodega,CA,94923,38.372265,-123.076441,Sonoma Coast State Park,State Park,http://www.parks.ca.gov/?page_id=451,Fishing,Picnic Tables,Dogs allowed on the beach,Y,"",N,"",""
4976,Northern,Sonoma,Bodega Bay,Coleman Beach,https://www.californiabeaches.com/beach/coleman-beach/,Coleman Valley Rd and Hwy 1,Bodega,CA,94923,38.363619,-123.070727,Sonoma Coast State Park,State Park,http://www.parks.ca.gov/?page_id=451,"Fishing, Beach Exploration",No Facilities,No dogs allowed on the beach,N,Free parking,Y,"",""
4977,Northern,Sonoma,Bodega Bay,Doran Beach,https://www.californiabeaches.com/beach/doran-beach/,201 Doran Beach Rd,Bodega,CA,94923,38.312318,-123.047661,Doran Regional Park,County,http://parks.sonomacounty.ca.gov/Get_Outdoors/Parks/Doran_Regional_Park.aspx,"Fishing, Boating, Hiking, Biking, Walking, Equestrian Use, Camping, Birdwatching, Picnicking, Kayaking, Beach Walking","Campground, Picnic Tables, BBQs, Benches, Restrooms, Boat Launch, Fire Pits, Accessible Features",Dogs allowed on leash,Y,Fee charged for parking,N,"",""
4978,Northern,Sonoma,Bodega Bay,Duncans Landing,https://www.californiabeaches.com/beach/duncans-landing/,6947 Cliff Ave,Bodega,CA,94923,38.394834,-123.092701,Sonoma Coast State Park,State Park,http://www.parks.ca.gov/?page_id=451,"Picnicking, Beach Exploration, Photography",Picnic Tables,No dogs allowed on the beach,N,"",N,"","Duncans Cove, Duncans Point, Death Rock"
4979,Northern,Sonoma,Bodega Bay,Estero Americano Beach,https://www.californiabeaches.com/beach/estero-americano-beach/,"",Bodega,CA,94923,38.296037,-123.002166,Estero Americano State Marine Recreational Management Area,State MRMA,http://www.californiampas.org/mpa-regions/north-central-coast-region,"Kayaking, Birdwatching, Waterfowl Hunting",No Facilities,"",Y,"",N,"",""
