,id,title,name1,latitude,longitude,address,city,county,state,zip,county,active,grade_updated,dry_grade,wet_grade,annual_summer_dry,annual_year_wet,annual_winter_dry,annual_year,grade_created
0,1044,31502 Victoria Point,,34.035252000000000,-118.861320000000000,,Malibu,Los Angeles,CA,90265,Los Angeles,False,2018-07-04T12:39:31.100Z,ns,ns,,,,,2015-05-04T00:00:00.000Z
1,55,Abalone Cove Shoreline Park,Abalone Cove,33.741585000000000,-118.379189000000000,,Rancho Palos Verdes,Los Angeles -- LA Sanitation,CA,90275,Los Angeles -- LA Sanitation,True,2021-04-02T00:00:00.000Z,A+,A+,,,,,2021-04-02T00:00:00.000Z
2,133,Alamitos Bay - 56th Place - on bayside,Alamitos Bay,33.751183333000000,-118.125783333000000,,Long Beach,Los Angeles -- Long Beach,CA,90803,Los Angeles -- Long Beach,True,2020-04-10T00:00:00.000Z,C,ns,A,D,A,2018,2020-04-10T00:00:00.000Z
3,608,Alamitos Bay - Division Street and Bayshore,Alamitos Bay,33.756313000000000,-118.131158000000000,,Long Beach,Los Angeles -- Long Beach,CA,90803,Los Angeles -- Long Beach,False,2019-03-15T00:00:00.000Z,ns,,,,,,2019-03-15T00:00:00.000Z
4,135,Alamitos Bay - shore float,Alamitos Bay,33.754166666000000,-118.130950000000000,,Long Beach,Los Angeles -- Long Beach,CA,90803,Los Angeles -- Long Beach,True,2021-04-02T00:00:00.000Z,A+,B,A,C,A+,2018,2021-04-02T00:00:00.000Z
5,134,"Alamitos Bay, 1st & Bayshore",Alamitos Bay,33.755202000000000,-118.131713000000000,,Long Beach,Los Angeles -- Long Beach,CA,90803,Los Angeles -- Long Beach,False,2019-03-15T00:00:00.000Z,ns,,,,,,2019-03-15T00:00:00.000Z
6,137,"Alamitos Bay, 2nd St. Bridge & Bayshore",Alamitos Bay,33.757741000000000,-118.130160000000000,,Long Beach,Los Angeles -- Long Beach,CA,90803,Los Angeles -- Long Beach,True,2021-04-02T00:00:00.000Z,A+,ns,A,D,A+,2018,2021-04-02T00:00:00.000Z
7,218,Aliso County Beach,Aliso Creek Beach,33.510081000000000,-117.752961000000000,,Capistrano Beach,Orange,CA,92624,Orange,True,2021-03-26T00:00:00.000Z,A+,A+,A,F,A+,2018,2021-03-26T00:00:00.000Z
8,1055,Aliso Creek Ocean Interface (Point Zero),Aliso Creek Beach,33.510231000000000,-117.753150000000000,,,Orange,CA,,Orange,True,2021-03-26T00:00:00.000Z,ns,F,,,,,2021-03-26T00:00:00.000Z
9,630,Aquatic Park,Marina Lagoon,37.560274000000000,-122.291122000000000,,San Mateo,San Mateo,CA,94404,San Mateo,True,2020-12-04T00:00:00.000Z,A,ns,B,F,ns,2018,2020-12-04T00:00:00.000Z
10,495,"Aquatic Park Beach, 211 Station",Aquatic Park Beach,37.807677000000000,-122.422214000000000,,San Francisco,San Francisco,CA,94133,San Francisco,True,2021-04-02T00:00:00.000Z,A+,B,A,C,A,2018,2021-04-02T00:00:00.000Z
11,489,"Aquatic Park Beach, Hyde St. Pier (proj. of Larkin St.)",Aquatic Park Beach,37.808900000000000,-122.421166666000000,,San Francisco,San Francisco,CA,94109,San Francisco,True,2021-04-02T00:00:00.000Z,A+,ns,A+,A,A,2018,2021-04-02T00:00:00.000Z
12,74,Arroyo Burro Beach at Arroyo Burro Creek,Arroyo Burro Beach,34.402180000000000,-119.742308000000000,,Santa Barbara,Santa Barbara,CA,93109,Santa Barbara,True,2021-04-02T00:00:00.000Z,A,ns,A,D,C,2018,2021-04-02T00:00:00.000Z
13,64,Arroyo Quemada,Arroyo Quemada,34.470167000000000,-120.118972000000000,,Goleta,Santa Barbara,CA,93117,Santa Barbara,False,2019-03-15T00:00:00.000Z,ns,,,,,,2019-03-15T00:00:00.000Z
14,456,"Asilomar State Beach, Sunset Drive (formerly Arena)",Asilomar State Beach,36.627021000000000,-121.938322000000000,,Pacific Grove,Monterey,CA,93950,Monterey,True,2021-03-05T00:00:00.000Z,A+,ns,A,A+,ns,2018,2021-03-05T00:00:00.000Z
15,254,Avalon Beach - 100 feet east of the Green Pleasure Pier,Avalon Beach,33.343085000000000,-118.324197000000000,,Avalon,Los Angeles,CA,90704,Los Angeles,True,2020-11-06T00:00:00.000Z,A+,ns,A,A+,ns,2018,2020-11-06T00:00:00.000Z
16,250,Avalon Beach - 100 feet west of the Green Pleasure Pier,Avalon Beach,33.344138000000000,-118.325680000000000,,Avalon,Los Angeles,CA,90704,Los Angeles,True,2020-11-06T00:00:00.000Z,A,ns,A,A+,ns,2018,2020-11-06T00:00:00.000Z
17,253,Avalon Beach - 50 feet east of the Green Pleasure Pier,Avalon Beach,33.343383000000000,-118.324613000000000,,Avalon,Los Angeles,CA,90704,Los Angeles,True,2020-11-06T00:00:00.000Z,A+,ns,A+,A+,ns,2018,2020-11-06T00:00:00.000Z
18,251,Avalon Beach - 50 feet west of the Green Pleasure Pier,Avalon Beach,33.343862000000000,-118.325299000000000,,Avalon,Los Angeles,CA,90704,Los Angeles,True,2020-11-06T00:00:00.000Z,A+,ns,A+,A+,ns,2018,2020-11-06T00:00:00.000Z
19,249,Avalon Beach - east of the Casino Arch at the steps,Avalon Beach,33.345270000000000,-118.326740000000000,,Avalon,Los Angeles,CA,90704,Los Angeles,True,2020-11-06T00:00:00.000Z,A,ns,A,A+,ns,2018,2020-11-06T00:00:00.000Z
20,1068,"Avila Beach, 350 yards west of pier at creek outfall ",Avila Beach,35.179160000000000,-120.740480000000000,,Avila Beach,San Luis Obispo,CA,93424,San Luis Obispo,True,2021-04-02T00:00:00.000Z,A,A+,,,,,2021-04-02T00:00:00.000Z
21,394,"Avila Beach, projection of San Juan Street",Avila Beach,35.178392000000000,-120.736801000000000,,Avila Beach,San Luis Obispo,CA,93424,San Luis Obispo,False,2019-03-15T00:00:00.000Z,ns,,,,,,2019-03-15T00:00:00.000Z
22,396,"Avila Beach, projection of San Luis Street",Avila Beach,35.177793000000000,-120.732926000000000,,Avila Beach,San Luis Obispo,CA,93424,San Luis Obispo,True,2021-04-02T00:00:00.000Z,A+,A+,A+,B,A,2018,2021-04-02T00:00:00.000Z
23,496,"Baker Beach East, Ocean #15East",Baker Beach,37.792149000000000,-122.484946000000000,,San Francisco,San Francisco,CA,94121,San Francisco,True,2021-04-02T00:00:00.000Z,A+,A+,A,A,A,2018,2021-04-02T00:00:00.000Z
24,498,"Baker Beach West, Ocean #16",Baker Beach,37.789783000000000,-122.487303000000000,,San Francisco,San Francisco,CA,94121,San Francisco,True,2021-04-02T00:00:00.000Z,A+,A,A+,A,A,2018,2021-04-02T00:00:00.000Z
25,570,"Baker Beach, Horseshoe Cove NE",Fort Baker Beach,37.833500000000000,-122.474700000000000,,Sausalito,Marin,CA,94965,Marin,True,2020-11-06T00:00:00.000Z,A+,ns,A+,A+,ns,2018,2020-11-06T00:00:00.000Z
26,569,"Baker Beach, Horseshoe Cove NW",Fort Baker Beach,37.833200000000000,-122.477800000000000,,Sausalito,Marin,CA,94965,Marin,True,2020-11-06T00:00:00.000Z,A,ns,A+,A+,ns,2018,2020-11-06T00:00:00.000Z
27,568,"Baker Beach, Horseshoe Cove SW",Fort Baker Beach,37.832100000000000,-122.477400000000000,,Sausalito,Marin,CA,94965,Marin,True,2020-11-06T00:00:00.000Z,A+,ns,A+,A+,ns,2018,2020-11-06T00:00:00.000Z
28,497,"Baker Beach, Lobos Creek",Baker Beach,37.790485000000000,-122.486238000000000,,San Francisco,San Francisco,CA,94121,San Francisco,True,2021-04-02T00:00:00.000Z,A,A+,B,D,B,2018,2021-04-02T00:00:00.000Z
29,157,Balboa Beach - The Wedge,Balboa Beach,33.593690000000000,-117.881662000000000,,Newport Beach,Orange,CA,92661,Orange,True,2021-03-26T00:00:00.000Z,A+,A+,A+,A,A+,2018,2021-03-26T00:00:00.000Z
30,156,"Balboa Beach- Balboa Pier, upcoast side",Balboa Beach,33.600850000000000,-117.902853000000000,,Newport Beach,Orange,CA,92661,Orange,True,2021-03-26T00:00:00.000Z,A+,A+,A+,A+,A+,2018,2021-03-26T00:00:00.000Z
31,155,Balboa Beach- projection of 15th/16th Street,Balboa Beach,33.605207000000000,-117.921962000000000,,Newport Beach,Orange,CA,92663,Orange,True,2021-03-26T00:00:00.000Z,A+,A+,A+,A+,A+,2018,2021-03-26T00:00:00.000Z
32,1026,Battery Point Lighthouse,Crescent City,41.745084000000000,-124.201652000000000,,,Del Norte,CA,,Del Norte,True,2019-03-15T00:00:00.000Z,ns,,A,A+,ns,2018,2019-03-15T00:00:00.000Z
33,478,Bean Hollow State Beach,Bean Hollow State Beach,37.225422000000000,-122.409180000000000,,Pescadero,San Mateo,CA,94060,San Mateo,True,2021-04-02T00:00:00.000Z,A+,A+,A+,A+,A+,2018,2021-04-02T00:00:00.000Z
34,199,Belmont Pier - eastside,Belmont Pier,33.757633333000000,-118.147483333000000,,Long Beach,Los Angeles -- Long Beach,CA,90814,Los Angeles -- Long Beach,False,2019-03-15T00:00:00.000Z,ns,,,,,,2019-03-15T00:00:00.000Z
35,197,Belmont Pier - westside,Belmont Pier,33.758033333000000,-118.149033333000000,,Long Beach,Los Angeles -- Long Beach,CA,90814,Los Angeles -- Long Beach,True,2021-04-02T00:00:00.000Z,B,A+,A,F,D,2018,2021-04-02T00:00:00.000Z
36,576,Big River near PCH,Big River,39.302299000000000,-123.793009000000000,,Mendocino,Mendocino,CA,95460,Mendocino,True,2020-11-06T00:00:00.000Z,A+,ns,A+,A+,ns,2018,2020-11-06T00:00:00.000Z
37,13,Big Rock Beach at 19948 PCH stairs,Big Rock Beach,34.036408000000000,-118.609515000000000,,Malibu,Los Angeles,CA,90265,Los Angeles,True,2021-04-02T00:00:00.000Z,A+,ns,,,,,2021-04-02T00:00:00.000Z
38,481,Black Point Beach,Black Point Beach,38.683364391000000,-123.432257411000000,,The Sea Ranch,Sonoma,CA,95497,Sonoma,True,2020-11-06T00:00:00.000Z,A+,ns,A+,A+,ns,2018,2020-11-06T00:00:00.000Z
39,1052,Boca del Canon Beach (Point Zero),San Clemente,33.412950000000000,-117.614020000000000,,,Orange,CA,,Orange,True,2019-03-15T00:00:00.000Z,ns,,,,,,2019-03-15T00:00:00.000Z
40,557,Bolinas Beach (Wharf Rd),Bolinas Beach,37.905200000000000,-122.683000000000000,,Bolinas,Marin,CA,94924,Marin,True,2020-11-06T00:00:00.000Z,A+,ns,A,A+,ns,2018,2020-11-06T00:00:00.000Z
41,143,Bolsa Chica Beach - across from the Reserve Flood Gates,Bolsa Chica State Beach,33.701814000000000,-118.055228000000000,,Huntington Beach,Orange,CA,92649,Orange,True,2021-03-26T00:00:00.000Z,A+,A+,A+,B,A,2018,2021-03-26T00:00:00.000Z
42,144,Bolsa Chica Reserve at the downcoast end of the State Beach,Bolsa Chica State Beach,33.688065000000000,-118.042182000000000,,Huntington Beach,Orange,CA,92648,Orange,True,2021-03-26T00:00:00.000Z,A+,A+,A,A+,A,2018,2021-03-26T00:00:00.000Z
43,381,"Border Field State Park, Border Fence (north side)",Border Field State Park,32.535300000000000,-117.125000000000000,,Imperial Beach,San Diego,CA,91932,San Diego,True,2021-04-02T00:00:00.000Z,F,ns,A,F,ns,2018,2021-04-02T00:00:00.000Z
44,380,"Border Field State Park, proj. of Monument Rd.",Border Field State Park,32.543300000000000,-117.125000000000000,,Imperial Beach,San Diego,CA,91932,San Diego,True,2021-04-02T00:00:00.000Z,F,ns,A,F,ns,2018,2021-04-02T00:00:00.000Z
45,3,Broad Beach at Trancas Creek mouth,Broad Beach,34.028858000000000,-118.842711000000000,,Malibu,Los Angeles,CA,90265,Los Angeles,True,2021-04-02T00:00:00.000Z,A+,ns,A,A+,A,2018,2021-04-02T00:00:00.000Z
46,257,Butterfly Beach,Butterfly Beach,34.417278000000000,-119.647556000000000,,Montecito,Santa Barbara,CA,93108,Santa Barbara,True,2021-04-02T00:00:00.000Z,A+,ns,A+,A,ns,2018,2021-04-02T00:00:00.000Z
47,628,Cabrillo Beach - harborside at lifeguard tower,Cabrillo Beach,33.710669000000000,-118.282884000000000,,San Pedro,Los Angeles -- LA City,CA,90731,Los Angeles -- LA City,False,2019-03-15T00:00:00.000Z,ns,,,,,,2019-03-15T00:00:00.000Z
48,60,Cabrillo Beach - harborside at restrooms,Cabrillo Beach,33.711160000000000,-118.282941000000000,,San Pedro,Los Angeles -- LA City,CA,90731,Los Angeles -- LA City,True,2021-04-02T00:00:00.000Z,F,B,D,F,F,2018,2021-04-02T00:00:00.000Z
49,61,Cabrillo Beach- harborside at boat launch,Cabrillo Beach,33.713392000000000,-118.283884000000000,,San Pedro,Los Angeles -- LA City,CA,90731,Los Angeles -- LA City,True,2021-04-02T00:00:00.000Z,A+,C,A,C,C,2018,2021-04-02T00:00:00.000Z
50,59,Cabrillo Beach- oceanside,Cabrillo Beach,33.708894000000000,-118.284008000000000,,San Pedro,Los Angeles -- LA City,CA,90731,Los Angeles -- LA City,True,2021-04-02T00:00:00.000Z,A,A+,,,,,2021-04-02T00:00:00.000Z
51,266,"Camp Pendleton, Camp del Mar (near 9th St.)",Camp Pendleton,33.218350000000000,-117.406170000000000,,Oceanside,San Diego,CA,92054,San Diego,False,2019-03-15T00:00:00.000Z,ns,,,,,,2019-03-15T00:00:00.000Z
52,485,Campbell Cove State Park Beach,Campbell Cove State Park Beach,38.304910621000000,-123.057116030000000,,Bodega Bay,Sonoma,CA,94923,Sonoma,True,2020-11-06T00:00:00.000Z,B,ns,A+,A+,ns,2018,2020-11-06T00:00:00.000Z
53,579,"Candlestick Point, Jackrabbit Beach",Candlestick Point,37.711433330000000,-122.380083333000000,,San Francisco,San Francisco,CA,94124,San Francisco,True,2021-04-02T00:00:00.000Z,A+,A+,A,C,A,2018,2021-04-02T00:00:00.000Z
54,581,"Candlestick Point, Sunnydale Cove",Candlestick Point,37.709550000000000,-122.389883333000000,,San Francisco,San Francisco,CA,94124,San Francisco,True,2021-04-02T00:00:00.000Z,A+,A+,A,F,A,2018,2021-04-02T00:00:00.000Z
55,580,"Candlestick Point, Windsurfer Circle",Candlestick Point,37.709133330000000,-122.382300000000000,,San Francisco,San Francisco,CA,94124,San Francisco,True,2021-04-02T00:00:00.000Z,A+,C,B,F,F,2018,2021-04-02T00:00:00.000Z
56,1061,Capistrano Bay Community Beach (Point Zero),Capistrano County Beach,33.452810000000000,-117.665570000000000,,,Orange,CA,,Orange,True,2019-09-06T00:00:00.000Z,A+,ns,,,,,2019-09-06T00:00:00.000Z
57,1060,Capistrano County Beach drain (Point Zero),Capistrano County Beach,33.453447000000000,-117.666969000000000,,,Orange,CA,,Orange,True,2019-09-20T00:00:00.000Z,A+,ns,,,,,2019-09-20T00:00:00.000Z
58,1046,Capistrano Shores North (Point Zero),San Clemente,33.435200000000000,-117.638070000000000,,,Orange,CA,,Orange,True,2019-03-15T00:00:00.000Z,ns,,,,,,2019-03-15T00:00:00.000Z
59,1047,Capistrano Shores South (Point Zero),San Clemente,33.432710000000000,-117.634840000000000,,,Orange,CA,,Orange,True,2019-03-15T00:00:00.000Z,ns,,,,,,2019-03-15T00:00:00.000Z
60,442,"Capitola Beach, east of the Capitola Pier",Capitola Beach,118.000000000000000,80.000000000000000,,,Santa Cruz,CA,,Santa Cruz,False,2019-03-15T00:00:00.000Z,ns,,,,,,2019-03-15T00:00:00.000Z
61,444,"Capitola Beach, east of the jetty",Capitola Beach,36.971748000000000,-121.949735000000000,,Capitola,Santa Cruz,CA,95010,Santa Cruz,True,2021-04-02T00:00:00.000Z,A+,F,A,B,A,2018,2021-04-02T00:00:00.000Z
62,443,"Capitola Beach, west of the jetty",Capitola Beach,36.971191000000000,-121.951009000000000,,Capitola,Santa Cruz,CA,95010,Santa Cruz,True,2021-04-02T00:00:00.000Z,D,F,B,C,C,2018,2021-04-02T00:00:00.000Z
63,441,"Capitola, Hooper's Beach","Capitola, Hooper's Beach",118.000000000000000,80.000000000000000,,,Santa Cruz,CA,,Santa Cruz,False,2019-03-15T00:00:00.000Z,ns,,,,,,2019-03-15T00:00:00.000Z
64,599,Carbon Beach at Sweetwater Canyon,Carbon Beach,34.037801000000000,-118.673876000000000,,Malibu,Los Angeles -- LA City,CA,90265,Los Angeles -- LA City,True,2021-04-02T00:00:00.000Z,A+,A+,A+,C,A,2018,2021-04-02T00:00:00.000Z
65,299,Cardiff State Beach Charthouse parking (slight S. of Kilkeny),Cardiff State Beach,33.011892000000000,-117.279937000000000,,Cardiff By The S,San Diego -- San Elijo,CA,92007,San Diego -- San Elijo,True,2021-03-19T00:00:00.000Z,A,A+,A,B,A+,2018,2021-03-19T00:00:00.000Z
66,300,"Cardiff State Beach, Las Olas (100 yds. south of Charthouse)",Cardiff State Beach,33.005833,-117.278472,,Cardiff By The S,San Diego -- San Elijo,CA,92007,San Diego -- San Elijo,True,2021-03-19T00:00:00.000Z,A+,A+,A+,B,A+,2018,2021-03-19T00:00:00.000Z
67,294,"Cardiff State Beach, San Elijo Lagoon outlet",Cardiff State Beach,33.015493000000000,-117.281556000000000,,Cardiff By The S,San Diego -- San Elijo,CA,92007,San Diego -- San Elijo,True,2021-04-02T00:00:00.000Z,A+,A+,A,A+,ns,2018,2021-04-02T00:00:00.000Z
68,301,"Cardiff State Beach, Seaside State Park",Cardiff State Beach,33.001319,-117.278388,,Cardiff By The S,San Diego -- San Elijo,CA,92007,San Diego -- San Elijo,True,2021-03-19T00:00:00.000Z,A+,A+,A+,C,A+,2018,2021-03-19T00:00:00.000Z
69,404,"Carlsbad State Beach, warm water jetty (adj. to power plant)",Carlsbad,33.137753000000000,-117.339320000000000,,Carlsbad,San Diego,CA,92008,San Diego,True,2019-03-15T00:00:00.000Z,ns,,A,ns,ns,2018,2019-03-15T00:00:00.000Z
70,288,"Carlsbad, Batiquitos Lagoon outlet",Carlsbad,33.086647000000000,-117.313137000000000,,Carlsbad,San Diego,CA,92009,San Diego,True,2020-11-06T00:00:00.000Z,A+,ns,A+,A+,ns,2018,2020-11-06T00:00:00.000Z
71,285,"Carlsbad, Encina Creek outlet",Carlsbad,33.115747000000000,-117.325412000000000,,Carlsbad,San Diego -- Encina,CA,92008,San Diego -- Encina,True,2021-04-02T00:00:00.000Z,A+,A+,A+,A+,A+,2018,2021-04-02T00:00:00.000Z
72,280,"Carlsbad, projection of Carlsbad Village Dr.",Carlsbad,33.156731000000000,-117.353563000000000,,Carlsbad,San Diego,CA,92008,San Diego,False,2020-11-06T00:00:00.000Z,A,ns,,,,,2020-11-06T00:00:00.000Z
73,283,"Carlsbad, projection of Cerezo Dr.",Carlsbad,33.1285,-117.333806,,Carlsbad,San Diego -- Encina,CA,92008,San Diego -- Encina,True,2021-04-02T00:00:00.000Z,A+,A+,A+,A+,A+,2018,2021-04-02T00:00:00.000Z
74,284,"Carlsbad, projection of Palomar Airport Rd.",Carlsbad,33.119222,-117.327111,,Carlsbad,San Diego -- Encina,CA,92008,San Diego -- Encina,True,2021-04-02T00:00:00.000Z,A+,A+,A+,A+,A+,2018,2021-04-02T00:00:00.000Z
75,287,"Carlsbad, projection of Poinsettia Ln.",Carlsbad,33.100545000000000,-117.319229000000000,,Carlsbad,San Diego -- Encina,CA,92009,San Diego -- Encina,True,2021-04-02T00:00:00.000Z,A+,A+,A+,A+,A+,2018,2021-04-02T00:00:00.000Z
76,286,"Carlsbad, projection of Ponto Dr.",Carlsbad,33.106306,-117.321583,,Carlsbad,San Diego -- Encina,CA,92008,San Diego -- Encina,True,2021-04-02T00:00:00.000Z,A+,A+,A+,A+,A+,2018,2021-04-02T00:00:00.000Z
77,281,"Carlsbad, projection of Tamarack Ave.",Carlsbad,33.145381000000000,-117.345170000000000,,Carlsbad,San Diego,CA,92008,San Diego,True,2021-04-02T00:00:00.000Z,A+,A+,A+,ns,ns,2018,2021-04-02T00:00:00.000Z
78,459,"Carmel City Beach, projection of Ocean Ave. (west end)",Carmel City Beach,36.555113000000000,-121.931358000000000,,Pebble Beach,Monterey,CA,93953,Monterey,True,2021-03-05T00:00:00.000Z,A+,ns,A,C,ns,2018,2021-03-05T00:00:00.000Z
79,79,Carpinteria City Beach- projection of Linden Av.,Carpinteria City Beach,34.393167000000000,-119.524944000000000,,Carpinteria,Santa Barbara,CA,93013,Santa Barbara,False,2019-03-15T00:00:00.000Z,ns,,,,,,2019-03-15T00:00:00.000Z
80,80,Carpinteria State Beach at Carpinteria Creek,Carpinteria State Beach,34.389917000000000,-119.519583000000000,,Carpinteria,Santa Barbara,CA,93013,Santa Barbara,True,2021-04-02T00:00:00.000Z,A+,ns,A+,F,F,2018,2021-04-02T00:00:00.000Z
81,624,Caspar Beach at Caspar Creek,Caspar Beach,39.361952000000000,-123.817857000000000,,Caspar,Mendocino,CA,95420,Mendocino,True,2020-11-06T00:00:00.000Z,A+,ns,A+,A+,ns,2018,2020-11-06T00:00:00.000Z
82,648,Castle Rock Beach,,41.765189000000000,-124.231328000000000,,,Del Norte,CA,,Del Norte,False,2010-02-09T00:00:00.000Z,ns,ns,,,,,2010-02-09T00:00:00.000Z
83,603,Castle Rock Beach just west of drain,Castlerock Beach,34.041363000000000,-118.567484000000000,,Pacific Palisade,Los Angeles -- LA City,CA,90272,Los Angeles -- LA City,True,2021-04-02T00:00:00.000Z,A+,A+,A+,D,A,2018,2021-04-02T00:00:00.000Z
84,1069,"Cayucos Beach, North of pier at outfall ",Cayucos State Beach,35.449040000000000,-120.907920000000000,,Cayucos,San Luis Obispo,CA,93430,San Luis Obispo,True,2021-04-02T00:00:00.000Z,A+,A+,,,,,2021-04-02T00:00:00.000Z
85,388,"Cayucos State Beach, between Cayucos Creek & Pier",Cayucos State Beach,35.448727000000000,-120.907047000000000,,Cayucos,San Luis Obispo,CA,93430,San Luis Obispo,False,2019-03-15T00:00:00.000Z,ns,,,,,,2019-03-15T00:00:00.000Z
86,391,"Cayucos State Beach, downcoast of the pier",Cayucos State Beach,35.447994000000000,-120.905312000000000,,Cayucos,San Luis Obispo,CA,93430,San Luis Obispo,True,2021-04-02T00:00:00.000Z,A+,A+,A,A+,A,2018,2021-04-02T00:00:00.000Z
87,506,Channel Islands Harbor - Beach Park at the end of rocks,C.I. Harbor,34.158099000000000,-119.224338000000000,,Oxnard,Ventura,CA,93035,Ventura,False,2019-03-15T00:00:00.000Z,ns,,,,,,2019-03-15T00:00:00.000Z
88,512,"Channel Islands Harbor - Beach Park, Kiddies Beach, 50' downcoast",C. I. Harbor-Beach Park,118.000000000000000,0.000000000000000,,,Ventura,CA,,Ventura,False,2019-03-15T00:00:00.000Z,ns,,,,,,2019-03-15T00:00:00.000Z
89,511,"Channel Islands Harbor - Beach Park, Kiddies Beach, 50' upcoast",C. I. HarborBeach Park,118.000000000000000,8.000000000000000,,,Ventura,CA,,Ventura,False,2019-03-15T00:00:00.000Z,ns,,,,,,2019-03-15T00:00:00.000Z
90,118,Channel Islands Harbor Beach Park- Kiddie Beach,C.I.Harbor-Beach Park,34.159515000000000,-119.222295000000000,,Oxnard,Ventura,CA,93035,Ventura,True,2021-04-02T00:00:00.000Z,A+,F,A,A,A,2018,2021-04-02T00:00:00.000Z
91,549,Chicken Ranch Beach at Creek,Chicken Ranch Beach,38.109700000000000,-122.864600000000000,,Inverness,Marin,CA,94937,Marin,True,2020-11-06T00:00:00.000Z,A+,ns,A,A+,ns,2018,2020-11-06T00:00:00.000Z
92,499,"China Beach, end of Sea Cliff Ave.",ChinaBeach,37.788216000000000,-122.491147000000000,,San Francisco,San Francisco,CA,94121,San Francisco,True,2021-04-02T00:00:00.000Z,A+,A+,A+,A,A+,2018,2021-04-02T00:00:00.000Z
93,573,China Camp,China Camp,38.000400000000000,-122.461000000000000,,,Marin,CA,,Marin,True,2020-11-06T00:00:00.000Z,A+,ns,B,A+,ns,2018,2020-11-06T00:00:00.000Z
94,539,Clam Beach County Park near Strawberry Creek,Clam Beach County Park,40.987639000000000,-124.121466000000000,,Mc Kinleyville,Humboldt,CA,95521,Humboldt,True,2020-11-06T00:00:00.000Z,F,ns,F,C,ns,2018,2020-11-06T00:00:00.000Z
95,1054,Cleo Street (Point Zero),Laguna Main Beach,33.536910000000000,-117.781080000000000,,,Orange,CA,,Orange,True,2021-02-12T00:00:00.000Z,A+,ns,,,,,2021-02-12T00:00:00.000Z
96,409,"Colorado Lagoon, center",Colorado Lagoon,33.771050000000000,-118.134666666000000,,Long Beach,Los Angeles -- Long Beach,CA,90814,Los Angeles -- Long Beach,False,2019-03-15T00:00:00.000Z,ns,,,,,,2019-03-15T00:00:00.000Z
97,408,"Colorado Lagoon, north",Colorado Lagoon,33.771333333000000,-118.134050000000000,,Long Beach,Los Angeles -- Long Beach,CA,90814,Los Angeles -- Long Beach,True,2021-01-15T00:00:00.000Z,F,ns,A,D,B,2018,2021-01-15T00:00:00.000Z
98,410,"Colorado Lagoon, south",Colorado Lagoon,33.770533333000000,-118.134583333000000,,Long Beach,Los Angeles -- Long Beach,CA,90814,Los Angeles -- Long Beach,True,2021-01-22T00:00:00.000Z,B,ns,A,F,B,2018,2021-01-22T00:00:00.000Z
99,2073,Corcoran Lagoon Beach,Corcoran Lagoon Beach,36.959829000000000,-121.986315000000000,,Santa Cruz,Santa Cruz,CA,95062,Santa Cruz,True,2019-10-18T00:00:00.000Z,A+,ns,,,,,2019-10-18T00:00:00.000Z
100,203,Corona del Mar - Little Corona Beach,Little Corona Beach,33.589293000000000,-117.868704000000000,,Corona Del Mar,Orange,CA,92625,Orange,True,2021-03-26T00:00:00.000Z,A+,B,,,,,2021-03-26T00:00:00.000Z
101,295,Corona del Mar Beach,Corona Del Mar Beach,33.593030000000000,-117.875571000000000,,Corona Del Mar,Orange,CA,92625,Orange,True,2021-04-02T00:00:00.000Z,A,A+,A+,A+,A+,2018,2021-04-02T00:00:00.000Z
102,202,"Corona del Mar- Corona del Mar Beach, 200 yds. so. of breakwater",,118.000000000000000,500.000000000000000,,,Orange,CA,,Orange,False,,,,,,,,
103,368,Coronado at North Beach (near Navy fence),Coronado at North Beach,32.685840000000000,-117.193687000000000,,Coronado,San Diego,CA,92118,San Diego,False,2021-02-19T00:00:00.000Z,A+,A+,,,,,2021-02-19T00:00:00.000Z
104,514,"Coronado, NASNI Beach",Coronado at North Beach,32.686700000000000,-117.199866000000000,,"Coronado, California",San Diego,CA,92135,San Diego,False,2019-03-15T00:00:00.000Z,ns,,,,,,2019-03-15T00:00:00.000Z
105,371,"Coronado, Silver Strand",Coronado Beach,32.630331000000000,-117.141114000000000,,"Coronado, California",San Diego,CA,92155,San Diego,True,2021-04-02T00:00:00.000Z,A,B,A+,A+,ns,2018,2021-04-02T00:00:00.000Z
106,370,"Coronado, projection of Ave. del Sol",Coronado Beach,32.677852000000000,-117.177486000000000,,Coronado,San Diego,CA,92118,San Diego,True,2021-04-02T00:00:00.000Z,A+,ns,A,A+,ns,2018,2021-04-02T00:00:00.000Z
107,369,"Coronado, projection of Loma Ave.",Coronado,32.681959000000000,-117.184577000000000,,Coronado,San Diego,CA,92118,San Diego,False,2020-05-01T00:00:00.000Z,A+,ns,,,,,2020-05-01T00:00:00.000Z
108,129,County Line Beach - Sandy Beach,County Line Beach,34.051551000000000,-118.959972000000000,,Malibu,Ventura,CA,90265,Ventura,True,2021-04-02T00:00:00.000Z,A+,A+,A+,A+,ns,2018,2021-04-02T00:00:00.000Z
109,644,Cowell Beach Lifeguard Tower 1,Cowell Beach,36.961244000000000,-122.023799000000000,,Santa Cruz,Santa Cruz,CA,,Santa Cruz,True,2021-03-26T00:00:00.000Z,A+,A+,B,A,B,2018,2021-03-26T00:00:00.000Z
110,434,Cowell Beach at the Stairs,Cowell Beach,36.957728000000000,-122.025704000000000,,Santa Cruz,Santa Cruz,CA,95060,Santa Cruz,True,2021-04-02T00:00:00.000Z,A+,F,A,A,B,2018,2021-04-02T00:00:00.000Z
111,643,Cowell Beach west edge of Dream Inn,Cowell Beach,36.960293000000000,-122.024665000000000,,Santa Cruz,Santa Cruz,CA,95060,Santa Cruz,False,2019-03-15T00:00:00.000Z,ns,,,,,,2019-03-15T00:00:00.000Z
112,435,"Cowell Beach, west of the wharf",Cowell Beach,36.961822000000000,-122.023193000000000,,Santa Cruz,Santa Cruz,CA,95060,Santa Cruz,True,2021-04-02T00:00:00.000Z,A+,A+,D,B,B,2018,2021-04-02T00:00:00.000Z
113,629,Coyote Point,Coyote Point,37.590187194000000,-122.324605553000000,,San Mateo,San Mateo,CA,94401,San Mateo,True,2021-04-02T00:00:00.000Z,A+,C,A+,A,A,2018,2021-04-02T00:00:00.000Z
114,493,"Crissy Field Beach East, 202.4 Station",Crissy Field Beach,37.806571000000000,-122.451804000000000,,San Francisco,San Francisco,CA,94129,San Francisco,True,2021-04-02T00:00:00.000Z,A+,A,A+,B,F,2018,2021-04-02T00:00:00.000Z
115,627,Crissy Field Beach West 202.5 station,Crissy Field Beach,37.806977000000000,-122.468534000000000,,San Francisco,San Francisco,CA,94129,San Francisco,True,2021-04-02T00:00:00.000Z,A+,A+,A+,B,A+,2018,2021-04-02T00:00:00.000Z
116,491,"Crissy Field Beach West, 202.2 Station",,37.805733330000000,-122.456900000000000,,San Francisco,San Francisco,CA,94129,San Francisco,False,2008-07-23T00:00:00.000Z,ns,ns,,,,,2008-07-23T00:00:00.000Z
117,490,"Crissy Field Beach, Coast Guard Station",,118.000000000000000,65.000000000000000,,,San Francisco,CA,,San Francisco,False,,,,,,,,
118,492,"Crissy Field Beach, Lagoon Mouth",,118.000000000000000,65.000000000000000,,,San Francisco,CA,,San Francisco,False,,,,,,,,
119,494,"Crissy Field Beach, St. Francis Yacht Club",,118.000000000000000,65.000000000000000,,,San Francisco,CA,,San Francisco,False,,,,,,,,
120,619,Crown Beach 2001 Shoreline Dr.,Crown Beach,37.757306000000000,-122.259216000000000,,Coast Guard Isla,Alameda,CA,94501,Alameda,True,2021-04-02T00:00:00.000Z,A+,A,A,A,ns,2018,2021-04-02T00:00:00.000Z
121,616,Crown Beach Bath House,Crown Beach,37.765825000000000,-122.275060000000000,,Coast Guard Isla,Alameda,CA,94501,Alameda,True,2021-04-02T00:00:00.000Z,A+,A+,A,A,ns,2018,2021-04-02T00:00:00.000Z
122,620,Crown Beach Bird Sanctuary,Crown Beach,37.753987000000000,-122.250771000000000,,Coast Guard Isla,Alameda,CA,94501,Alameda,True,2021-04-02T00:00:00.000Z,B,D,A,C,ns,2018,2021-04-02T00:00:00.000Z
123,997,Crown Beach Crab Cove,Crown Beach,37.768158000000000,-122.276330000000000,,,Alameda,CA,,Alameda,True,2021-04-02T00:00:00.000Z,A+,A+,C,F,ns,2018,2021-04-02T00:00:00.000Z
124,618,Crown Beach Sunset Rd.,Crown Beach,37.759396000000000,-122.265284000000000,,Coast Guard Isla,Alameda,CA,94501,Alameda,True,2021-04-02T00:00:00.000Z,A+,A+,A,A,ns,2018,2021-04-02T00:00:00.000Z
125,617,Crown Beach Windsurfer Corner,Crown Beach,37.762876000000000,-122.272740000000000,,Coast Guard Isla,Alameda,CA,94501,Alameda,True,2021-04-02T00:00:00.000Z,A+,A+,A+,B,ns,2018,2021-04-02T00:00:00.000Z
126,296,Crystal Cove,Crystal Cove,33.573805000000000,-117.840761000000000,,Newport Beach,Orange,CA,92657,Orange,True,2021-04-02T00:00:00.000Z,A+,A+,A+,A+,A+,2018,2021-04-02T00:00:00.000Z
127,207,Crystal Cove at El Moro Beach,El Moro Beach,33.560044000000000,-117.822178000000000,,Laguna Niguel,Orange,CA,92651,Orange,True,2021-02-12T00:00:00.000Z,A+,ns,,,,,2021-02-12T00:00:00.000Z
128,206,Crystal Cove at Muddy Creek Beach,Muddy Creek Beach,33.563772000000000,-117.828256000000000,,Laguna Niguel,Orange,CA,92651,Orange,True,2021-04-02T00:00:00.000Z,A+,B,,,,,2021-04-02T00:00:00.000Z
129,204,Crystal Cove at Pelican Point,Pelican Point Beach,33.582210000000000,-117.856940000000000,,Newport Beach,Orange,CA,92657,Orange,True,2021-04-02T00:00:00.000Z,A+,A+,,,,,2021-04-02T00:00:00.000Z
130,235,Dana Point - Capistrano County Beach,Capistrano County Beach,33.454500000000000,-117.668270000000000,,Capistrano Beach,Orange,CA,92624,Orange,True,2021-03-19T00:00:00.000Z,A+,ns,A+,A+,A,2018,2021-03-19T00:00:00.000Z
131,263,Dana Point - Dana Strands Beach,Dana Strands Beach,33.469126000000000,-117.718022000000000,,Capistrano Beach,Orange,CA,92624,Orange,True,2021-03-19T00:00:00.000Z,A+,ns,A+,A+,A+,2018,2021-03-19T00:00:00.000Z
132,226,Dana Point - Marine Institute Beach,Marine Science Institute Beach,33.460400000000000,-117.707977000000000,,Monarch Bay,Orange,CA,92629,Orange,True,2021-03-19T00:00:00.000Z,A+,ns,A+,A+,A+,2018,2021-03-19T00:00:00.000Z
133,236,Dana Point - North Capistrano Bay Community Beach,Capistrano County Beach,33.450900000000000,-117.661370000000000,,Capistrano Beach,Orange,CA,92624,Orange,True,2021-03-19T00:00:00.000Z,A+,ns,A+,A+,A,2018,2021-03-19T00:00:00.000Z
134,237,Dana Point - South Capistrano Bay Community Beach,Capistrano County Beach,33.447602000000000,-117.655577000000000,,Capistrano Beach,Orange,CA,92624,Orange,True,2021-03-19T00:00:00.000Z,A+,ns,A+,A+,A+,2018,2021-03-19T00:00:00.000Z
135,244,Dana Point Harbor Baby Beach - Buoy Line,Dana Point Harbor,33.462700000000000,-117.705050000000000,,Monarch Bay,Orange,CA,92629,Orange,True,2021-03-19T00:00:00.000Z,A,ns,A+,A+,A,2018,2021-03-19T00:00:00.000Z
136,246,Dana Point Harbor Baby Beach - East End,Dana Point Harbor,33.462434000000000,-117.704098000000000,,Monarch Bay,Orange,CA,92629,Orange,True,2021-03-19T00:00:00.000Z,A,ns,A+,A+,A,2018,2021-03-19T00:00:00.000Z
137,245,Dana Point Harbor Baby Beach - Swim Area,Dana Point Harbor,33.462630000000000,-117.704690000000000,,Monarch Bay,Orange,CA,92629,Orange,True,2021-03-19T00:00:00.000Z,A+,ns,A,A+,A,2018,2021-03-19T00:00:00.000Z
138,243,Dana Point Harbor Baby Beach - West End,Dana Point Harbor,33.463000000000000,-117.705660000000000,,Monarch Bay,Orange,CA,92629,Orange,True,2021-03-19T00:00:00.000Z,A+,ns,B,A+,B,2018,2021-03-19T00:00:00.000Z
139,247,Dana Point Harbor Guest Dock,Dana Point Harbor,33.462005000000000,-117.703414000000000,,Monarch Bay,Orange,CA,92629,Orange,True,2021-03-19T00:00:00.000Z,A+,ns,A+,A+,A,2018,2021-03-19T00:00:00.000Z
140,2087,Dana Point Harbor Pier,,33.46133,-117.7055,,Dana Point,Orange,CA,92629,Orange,False,,,,,,,,
141,2088,Dana Point Harbor Pilgrim Dock,Dana Point Harbor,33.46166,-117.7058333,,Dana Point,Orange,CA,92629,Orange,False,,,,,,,,
142,248,Dana Point Harbor Youth Dock,Dana Point Harbor,33.461892000000000,-117.704270000000000,,Monarch Bay,Orange,CA,92629,Orange,True,2021-03-19T00:00:00.000Z,A+,ns,A+,A+,A+,2018,2021-03-19T00:00:00.000Z
143,2102,"Dana Point Harbor, Harbor Patrol Dock",Dana Point Harbor,33.45845,-117.6935518,,Dana Point,Orange,CA,92629,Orange,False,,,,,,,,
144,2103,"Dana Point Harbor, M Dock (East Basin)",Dana Point Harbor,33.46031,-117.6961325,,Dana Point,Orange,CA,92629,Orange,False,,,,,,,,
145,2086,Dana Point Harbor-Fuel Dock,Dana Point Harbor,33.4595,-117.6905,,Dana Point,Orange,CA,92629,Orange,False,,,,,,,,
146,230,"Dana Point- Doheny Beach, south of San Juan Creek",Doheny State Beach,33.461078000000000,-117.681121000000000,,Capistrano Beach,Orange,CA,92624,Orange,False,2019-03-15T00:00:00.000Z,ns,,,,,,2019-03-15T00:00:00.000Z
147,298,"Dana Point- north beach, Doheny",,118.000000000000000,500.000000000000000,,,Orange,CA,,Orange,False,,,,,,,,
148,429,Davenport Beach at San Vicente Creek,Davenport Landing Beach,37.009248000000000,-122.193937000000000,,Davenport,Santa Cruz,CA,95017,Santa Cruz,True,2019-03-15T00:00:00.000Z,ns,,ns,A+,ns,2018,2019-03-15T00:00:00.000Z
149,428,Davenport Landing Beach at Molino Creek,Davenport Landing Beach,118.000000000000000,80.000000000000000,,,Santa Cruz,CA,,Santa Cruz,False,2019-03-15T00:00:00.000Z,ns,,,,,,2019-03-15T00:00:00.000Z
150,128,Deer Creek Beach- 50 yds. south of creek,Deer Creek,34.061835000000000,-118.985829000000000,,Camarillo,Ventura,CA,93011,Ventura,False,2019-03-15T00:00:00.000Z,ns,,,,,,2019-03-15T00:00:00.000Z
151,636,Del Mar Sea Orbit Ln.,,32.955071000000000,-117.267504000000000,,,San Diego,CA,,San Diego,False,2008-12-13T00:00:00.000Z,ns,ns,,,,,2008-12-13T00:00:00.000Z
152,637,Del Mar south - 4th Street,,32.947050000000000,-117.264633000000000,,,San Diego,CA,,San Diego,False,2008-12-13T00:00:00.000Z,ns,ns,,,,,2008-12-13T00:00:00.000Z
153,305,"Del Mar, San Dieguito River Beach",Del Mar,32.974680000000000,-117.270610000000000,,Solana Beach,San Diego,CA,92075,San Diego,True,2021-04-02T00:00:00.000Z,A+,A+,A,A+,ns,2018,2021-04-02T00:00:00.000Z
154,306,"Del Mar, proj. of 17th Street",Del Mar,32.962390000000000,-117.268730000000000,,Solana Beach,San Diego,CA,92075,San Diego,False,2019-03-15T00:00:00.000Z,ns,,,,,,2019-03-15T00:00:00.000Z
155,308,"Del Mar, projection of 12th Street",Del Mar,32.955600000000000,-117.267850000000000,,Del Mar,San Diego,CA,92014,San Diego,False,2019-03-15T00:00:00.000Z,ns,,,,,,2019-03-15T00:00:00.000Z
156,307,"Del Mar, projection of 15th Street",Del Mar,32.959970000000000,-117.268730000000000,,Del Mar,San Diego,CA,92014,San Diego,True,2021-04-02T00:00:00.000Z,A+,A+,A+,ns,ns,2018,2021-04-02T00:00:00.000Z
157,1073,Descanso Bay - between fire pits,Descanso Bay,33.350740000000000,-118.328429500000000,,Avalon,Los Angeles,CA,90704,Los Angeles,True,2019-03-15T00:00:00.000Z,ns,,,,,,2019-03-15T00:00:00.000Z
158,1072,Descanso Bay - end of beach,Descanso Bay,33.351218300000000,-118.328615900000000,,Avalon,Los Angeles,CA,90704,Los Angeles,True,2019-03-15T00:00:00.000Z,ns,,,,,,2019-03-15T00:00:00.000Z
159,542,Dillon Beach,Dillon Beach,38.249069000000000,-122.969253000000000,,Dillon Beach,Marin,CA,94929,Marin,True,2020-11-06T00:00:00.000Z,A+,ns,A+,A+,ns,2018,2020-11-06T00:00:00.000Z
160,1045,Diver's Cove (Point Zero),Diver's Cove,33.544750000000000,-117.794580000000000,,,Orange,CA,,Orange,True,2021-03-05T00:00:00.000Z,A+,ns,,,,,2021-03-05T00:00:00.000Z
161,41,Dockweiler Beach- opposite Hyperion Treatment Plant,Dockweiler State Beach,33.918933000000000,-118.431592000000000,,Playa Del Rey,Los Angeles,CA,90293,Los Angeles,True,2021-04-02T00:00:00.000Z,A+,A+,,,,,2021-04-02T00:00:00.000Z
162,37,Dockweiler State Beach at Ballona Creek mouth,Dockweiler State Beach,33.961154700000000,-118.456217900000000,,Playa Del Rey,Los Angeles,CA,90293,Los Angeles,True,2021-04-02T00:00:00.000Z,A+,A+,,,,,2021-04-02T00:00:00.000Z
163,38,Dockweiler State Beach at Culver Blvd. drain,Dockweiler State Beach,33.956461000000000,-118.451844000000000,,Playa Del Rey,Los Angeles -- LA City,CA,90293,Los Angeles -- LA City,True,2021-04-02T00:00:00.000Z,D,F,,,,,2021-04-02T00:00:00.000Z
164,42,Dockweiler State Beach at Grand Ave. drain,Dockweiler State Beach,33.915612000000000,-118.429727000000000,,Manhattan Beach,Los Angeles,CA,90266,Los Angeles,True,2021-04-02T00:00:00.000Z,A+,A+,A+,A+,A+,2018,2021-04-02T00:00:00.000Z
165,40,Dockweiler State Beach at Imperial Hwy drain,Dockweiler State Beach,33.930060000000000,-118.437131000000000,,Playa Del Rey,Los Angeles -- LA City,CA,90293,Los Angeles -- LA City,True,2021-04-02T00:00:00.000Z,A+,C,A,D,A+,2018,2021-04-02T00:00:00.000Z
166,39,Dockweiler State Beach at World Way (south of D&W jetty),Dockweiler State Beach,33.938700000000000,-118.441000000000000,,Playa Del Rey,Los Angeles,CA,90293,Los Angeles,True,2021-04-02T00:00:00.000Z,A+,A+,,,,,2021-04-02T00:00:00.000Z
167,1059,Doheney Beach South drain (Point Zero),Doheny State Beach,33.460300000000000,-117.677640000000000,,,Orange,CA,,Orange,True,2021-01-29T00:00:00.000Z,A+,A+,,,,,2021-01-29T00:00:00.000Z
168,232,Doheny Beach - 2000' south of outfall,Doheny State Beach,33.459380000000000,-117.676300000000000,,Capistrano Beach,Orange,CA,92624,Orange,True,2021-03-05T00:00:00.000Z,A+,A+,A,A+,A,2018,2021-03-05T00:00:00.000Z
169,234,Doheny State Beach - End of the Park,Doheny State Beach,33.456128000000000,-117.670669000000000,,Capistrano Beach,Orange,CA,92624,Orange,True,2021-01-29T00:00:00.000Z,A+,A+,,,,,2021-01-29T00:00:00.000Z
170,231,Doheny State Beach - Last Campground,Doheny State Beach,33.460591000000000,-117.679139000000000,,Capistrano Beach,Orange,CA,92624,Orange,True,2021-03-05T00:00:00.000Z,A+,A+,A,A+,A+,2018,2021-03-05T00:00:00.000Z
171,228,Doheny State Beach - Mid Beach,Doheny State Beach,33.461744000000000,-117.686556000000000,,Monarch Bay,Orange,CA,92629,Orange,True,2021-03-05T00:00:00.000Z,A+,D,A+,A+,C,2018,2021-03-05T00:00:00.000Z
172,227,Doheny State Beach - North Beach,Doheny State Beach,33.461390000000000,-117.689280000000000,,Monarch Bay,Orange,CA,92629,Orange,True,2021-04-02T00:00:00.000Z,A+,ns,,,,,2021-04-02T00:00:00.000Z
173,233,Doheny State Beach - Pedestrian Bridge,Doheny State Beach,33.457748000000000,-117.673500000000000,,Capistrano Beach,Orange,CA,92624,Orange,True,2021-01-29T00:00:00.000Z,A+,A+,A,A+,A,2018,2021-01-29T00:00:00.000Z
174,229,Doheny State Beach - San Juan Creek Interface,Doheny State Beach,33.461600000000000,-117.682610000000000,,Capistrano Beach,Orange,CA,92624,Orange,True,2021-03-05T00:00:00.000Z,A+,B,A,A,A,2018,2021-03-05T00:00:00.000Z
175,486,Doran Regional Park Beach,DoranRegionalPark,38.313116819000000,-123.043051164000000,,Bodega Bay,Sonoma,CA,94923,Sonoma,True,2020-11-06T00:00:00.000Z,A+,ns,A+,A+,ns,2018,2020-11-06T00:00:00.000Z
176,555,Drake's Beach,Drake's Beach,38.027300000000000,-122.961500000000000,,Point Reyes Station,Marin,CA,94956,Marin,True,2019-03-15T00:00:00.000Z,ns,,,,,,2019-03-15T00:00:00.000Z
177,611,Drakes Estero,Drakes Estero,38.082800000000000,-122.932800000000000,,Point Reyes Station,Marin,CA,94956,Marin,True,2019-03-15T00:00:00.000Z,ns,,,,,,2019-03-15T00:00:00.000Z
178,592,Dunes Beach,Dunes Beach,37.483304000000000,-122.453400000000000,,Half Moon Bay,San Mateo,CA,94019,San Mateo,True,2021-04-02T00:00:00.000Z,A+,D,A,B,D,2018,2021-04-02T00:00:00.000Z
179,76,East Beach at Mission Creek,East Beach,34.412306000000000,-119.685417000000000,,Santa Barbara,Santa Barbara,CA,93103,Santa Barbara,True,2021-04-02T00:00:00.000Z,A,ns,A,F,B,2018,2021-04-02T00:00:00.000Z
180,77,East Beach at Sycamore Creek,East Beach,34.416224000000000,-119.666549000000000,,Santa Barbara,Santa Barbara,CA,93103,Santa Barbara,True,2021-04-02T00:00:00.000Z,A+,ns,A+,D,A,2018,2021-04-02T00:00:00.000Z
181,70,El Capitan State Beach at Canada del Capitan,El Capitan State Beach,34.457972000000000,-120.021861000000000,,Los Olivos,Santa Barbara,CA,93441,Santa Barbara,True,2021-04-02T00:00:00.000Z,A+,ns,A+,C,C,2018,2021-04-02T00:00:00.000Z
182,593,"El Pescador State Beach, between Lachusa and Los Aliso creeks",El Pescador State Beach,34.039487000000000,-118.896892000000000,,Malibu,Los Angeles -- LA City,CA,90265,Los Angeles -- LA City,False,2019-03-15T00:00:00.000Z,ns,,,,,,2019-03-15T00:00:00.000Z
183,208,Emerald Bay- mid-cove,Emerald Bay Beach,33.550872000000000,-117.808389000000000,,Laguna Niguel,Orange,CA,92651,Orange,True,2021-02-12T00:00:00.000Z,A+,ns,,,,,2021-02-12T00:00:00.000Z
184,93,Emma Wood State Beach- South of Drain,Emma Wood State Beach,34.290996000000000,-119.338068000000000,,San Buenaventura,Ventura,CA,93001,Ventura,True,2021-04-02T00:00:00.000Z,A+,A+,A+,A,C,2018,2021-04-02T00:00:00.000Z
185,996,Encinal Beach Mid,Alameda Point,37.769078000000000,-122.291379000000000,,,Alameda,CA,,Alameda,False,2019-03-15T00:00:00.000Z,ns,,,,,,2019-03-15T00:00:00.000Z
186,634,Encinal Beach north,Alameda Point,37.769400000000000,-122.291370000000000,,Alameda,Alameda,CA,94501,Alameda,False,2019-03-15T00:00:00.000Z,ns,,,,,,2019-03-15T00:00:00.000Z
187,635,Encinal Beach south,Alameda Point,37.768860000000000,-122.291370000000000,,Alameda,Alameda,CA,94501,Alameda,False,2019-03-15T00:00:00.000Z,ns,,,,,,2019-03-15T00:00:00.000Z
188,594,Encinal Canyon at El Matador State Beach,El Matado State Beach,34.036640000000000,-118.870537000000000,,Malibu,Los Angeles -- LA City,CA,90265,Los Angeles -- LA City,True,2020-03-27T00:00:00.000Z,A+,A+,A+,A+,A+,2018,2020-03-27T00:00:00.000Z
189,290,"Encinitas, Moonlight Beach (Cottonwood Creek outlet)",Encinitas,33.048049000000000,-117.298693000000000,,Encinitas,San Diego,CA,92024,San Diego,True,2021-04-02T00:00:00.000Z,A+,A+,A,A+,ns,2018,2021-04-02T00:00:00.000Z
190,293,"Encinitas, San Elijo State Park (proj. of Liverpool Dr.)",Encinitas,33.019055,-117.2842,,Cardiff By The S,San Diego -- San Elijo,CA,92007,San Diego -- San Elijo,True,2021-03-19T00:00:00.000Z,A,A+,A+,A+,A+,2018,2021-03-19T00:00:00.000Z
191,607,"Encinitas, San Elijo State Park, Pipes surf break",Encinitas,33.024427000000000,-117.286615000000000,,Cardiff By The S,San Diego,CA,92007,San Diego,True,2021-03-19T00:00:00.000Z,A+,A+,A+,A+,ns,2018,2021-03-19T00:00:00.000Z
192,291,"Encinitas, Swami's Beach (Seacliff Park)",Encinitas,33.034314000000000,-117.292326000000000,,Encinitas,San Diego,CA,92024,San Diego,True,2021-04-02T00:00:00.000Z,A+,A+,A+,A+,ns,2018,2021-04-02T00:00:00.000Z
193,2082,"Erckenbrack Park, Foster City",Erckenbrack Park,37.56337600000,-122.26048000000,,Foster City,San Mateo,CA,94404,San Mateo,True,2021-04-02T00:00:00.000Z,D,B,,,,,2021-04-02T00:00:00.000Z
194,596,"Escondido Creek, just east of Escondido State Beach",Escondido State Beach,34.025268000000000,-118.765789000000000,,Malibu,Los Angeles -- LA City,CA,90265,Los Angeles -- LA City,True,2021-04-02T00:00:00.000Z,A+,A+,A+,A+,A+,2018,2021-04-02T00:00:00.000Z
195,89,Faria County Park Beach - stairs,Faria County Park,34.318667000000000,-119.390778000000000,,San Buenaventura,Ventura,CA,93001,Ventura,True,2021-04-02T00:00:00.000Z,A+,A+,,,,,2021-04-02T00:00:00.000Z
196,466,Fitzgerald Marine Reserve at San Vicente Creek,Fitzgerald Marine Reserve,37.524251000000000,-122.517974000000000,,Moss Beach,San Mateo,CA,94038,San Mateo,True,2020-03-27T00:00:00.000Z,A+,A+,C,F,F,2018,2020-03-27T00:00:00.000Z
197,505,"Fort Funston, opposite Lake Merced overflow structure",Fort Funston,37.715250000000000,-122.504683333000000,,San Francisco,San Francisco,CA,94132,San Francisco,True,2021-02-05T00:00:00.000Z,ns,A+,ns,F,ns,2018,2021-02-05T00:00:00.000Z
198,474,Francis Beach at the foot of the steps,Francis Beach,37.467207000000000,-122.446915000000000,,Half Moon Bay,San Mateo,CA,94019,San Mateo,True,2021-04-02T00:00:00.000Z,A+,C,B,A,C,2018,2021-04-02T00:00:00.000Z
199,65,Gaviota State Beach at Canada de las Cruces,Gaviota State Beach,34.470780000000000,-120.225392000000000,,Los Alamos,Santa Barbara,CA,93440,Santa Barbara,True,2021-04-02T00:00:00.000Z,A+,ns,A,D,A,2018,2021-04-02T00:00:00.000Z
200,479,Gazos Beach at Gazos Creek,Gazos Beach,37.165080000000000,-122.363199000000000,,Pescadero,San Mateo,CA,94060,San Mateo,True,2021-04-02T00:00:00.000Z,A+,F,B,B,C,2018,2021-04-02T00:00:00.000Z
201,483,Goat Rock State Park Beach,Goat Rock State Park Beach,38.440741937000000,-123.125474992000000,,Jenner,Sonoma,CA,95450,Sonoma,True,2020-11-06T00:00:00.000Z,A+,ns,A+,A+,ns,2018,2020-11-06T00:00:00.000Z
202,551,Golden Hinde,,118.000000000000000,3.000000000000000,,,Marin,CA,,Marin,False,,,,,,,,
203,72,Goleta Beach- 200 yds east of pier,Goleta Beach,34.416405000000000,-119.826918000000000,,Goleta,Santa Barbara,CA,93117,Santa Barbara,True,2021-04-02T00:00:00.000Z,A+,ns,A,F,F,2018,2021-04-02T00:00:00.000Z
204,518,Gray Whale Cove,Gray Whale Cove,37.564438000000000,-122.514268000000000,,Moss Beach,San Mateo,CA,94038,San Mateo,False,2019-03-15T00:00:00.000Z,ns,,,,,,2019-03-15T00:00:00.000Z
205,66,Guadalupe Dunes,Guadalupe Dunes,34.966372000000000,-120.651380000000000,,Guadalupe,Santa Barbara,CA,93434,Santa Barbara,True,2021-04-02T00:00:00.000Z,A+,A+,A+,A+,ns,2018,2021-04-02T00:00:00.000Z
206,480,Gualala Regional Park Beach,Gualala Regional Park Beach,38.762217245000000,-123.531647632000000,,Gualala,Sonoma,CA,95445,Sonoma,True,2020-11-06T00:00:00.000Z,A+,ns,A+,A+,ns,2018,2020-11-06T00:00:00.000Z
207,78,Hammond's Beach at Montecito Creek,Hammondâ€™s Beach,34.416917000000000,-119.634250000000000,,Montecito,Santa Barbara,CA,93108,Santa Barbara,True,2021-04-02T00:00:00.000Z,A+,ns,,,,,2021-04-02T00:00:00.000Z
208,623,Hare Creek,Hare Creek,39.417424000000000,-123.812804000000000,,Fort Bragg,Mendocino,CA,95437,Mendocino,True,2020-11-06T00:00:00.000Z,A+,ns,A,A+,ns,2018,2020-11-06T00:00:00.000Z
209,406,Haskell's Beach,Haskell's Beach,34.431088000000000,-119.917304000000000,,Goleta,Santa Barbara,CA,93117,Santa Barbara,False,2019-03-15T00:00:00.000Z,ns,,,,,,2019-03-15T00:00:00.000Z
210,522,"Hazard Canyon, Montana de Oro State Park",Montana de Oro State Park,35.289330560000000,-120.883252800000000,,Los Osos,San Luis Obispo,CA,93402,San Luis Obispo,True,2019-03-15T00:00:00.000Z,ns,,,,,,2019-03-15T00:00:00.000Z
211,1070,"Hearst Memorial State Beach, 100 yards west of the pier at creek outfall ",Hearst Memorial State Beach,35.642880000000000,-121.188970000000000,,San Simeon,San Luis Obispo,CA,93452,San Luis Obispo,True,2021-04-02T00:00:00.000Z,A+,A+,,,,,2021-04-02T00:00:00.000Z
212,583,Hearst State Beach east of pier,Hearst State Beach,35.642950402000000,-121.187299000000000,,San Simeon,San Luis Obispo,CA,93452,San Luis Obispo,False,2019-03-15T00:00:00.000Z,ns,,,,,,2019-03-15T00:00:00.000Z
213,582,Hearst State Beach west of pier,Hearst State Beach,35.643013715000000,-121.188309000000000,,,San Luis Obispo,CA,,San Luis Obispo,False,2019-03-15T00:00:00.000Z,ns,,,,,,2019-03-15T00:00:00.000Z
214,546,Heart's Desire,Heart's Desire,38.132600000000000,-122.893400000000000,,Point Reyes Station,Marin,CA,94956,Marin,True,2020-11-06T00:00:00.000Z,A,ns,A,A,ns,2018,2020-11-06T00:00:00.000Z
215,46,Hermosa Beach Pier- 50 yards south,Hermosa Beach,33.861200000000000,-118.402974000000000,,Hermosa Beach,Los Angeles -- Redondo,CA,90254,Los Angeles -- Redondo,True,2021-04-02T00:00:00.000Z,A+,A+,,,,,2021-04-02T00:00:00.000Z
216,45,Hermosa Beach- projection of 26th St.,Hermosa Beach,33.871366000000000,-118.407258000000000,,Hermosa Beach,Los Angeles,CA,90254,Los Angeles,True,2021-04-02T00:00:00.000Z,A+,A+,,,,,2021-04-02T00:00:00.000Z
217,47,Herondo Street storm drain - in front of drain,Hermosa Beach,33.851911000000000,-118.399707000000000,,Redondo Beach,Los Angeles,CA,90277,Los Angeles,True,2021-04-02T00:00:00.000Z,A+,C,,,,,2021-04-02T00:00:00.000Z
218,448,Hidden Beach,Hidden Beach,36.956925000000000,-121.889050000000000,,Aptos,Santa Cruz,CA,95003,Santa Cruz,True,2020-04-24T00:00:00.000Z,ns,A+,ns,A+,ns,2018,2020-04-24T00:00:00.000Z
219,117,Hobie Beach- Channel Islands Harbor,C.I.Harbor-Hobie Beach,34.160875000000000,-119.222029000000000,,Port Hueneme Cbc,Ventura,CA,93043,Ventura,True,2021-04-02T00:00:00.000Z,A+,A+,A,B,A+,2018,2021-04-02T00:00:00.000Z
220,87,Hobson County Park Beach- Stairs,Hobson County Park,34.337613000000000,-119.411859000000000,,San Buenaventura,Ventura,CA,93001,Ventura,True,2020-11-06T00:00:00.000Z,A+,ns,A+,A+,ns,2018,2020-11-06T00:00:00.000Z
221,115,Hollywood Beach - La Crescenta Street,Hollywood Beach,34.168523000000000,-119.233244000000000,,Oxnard,Ventura,CA,93035,Ventura,True,2020-07-17T00:00:00.000Z,A+,ns,A+,A+,ns,2018,2020-07-17T00:00:00.000Z
222,116,Hollywood Beach - Los Robles Street,Hollywood Beach,34.163098000000000,-119.230702000000000,,Oxnard,Ventura,CA,93035,Ventura,True,2021-04-02T00:00:00.000Z,A+,A+,A+,A+,A+,2018,2021-04-02T00:00:00.000Z
223,73,Hope Ranch Beach at Las Palmas Creek,Hope Ranch Beach,34.414500000000000,-119.780111000000000,,Santa Barbara,Santa Barbara,CA,93110,Santa Barbara,True,2021-04-02T00:00:00.000Z,A+,ns,A,C,B,2018,2021-04-02T00:00:00.000Z
224,145,Huntington City Beach - Bluffs at Dog Beach,Huntington City Beach,33.675650000000000,-118.028530000000000,,Huntington Beach,Orange,CA,92648,Orange,True,2021-03-26T00:00:00.000Z,A+,A+,A+,B,A,2018,2021-03-26T00:00:00.000Z
225,147,Huntington City Beach - Huntington Street,Huntington City Beach,33.651180000000000,-117.996910000000000,,Huntington Beach,Orange,CA,92648,Orange,True,2021-03-26T00:00:00.000Z,A+,A+,A+,C,A,2018,2021-03-26T00:00:00.000Z
226,146,Huntington City Beach - projection of 17th Street,Huntington City Beach,33.663642000000000,-118.013464000000000,,Huntington Beach,Orange,CA,92648,Orange,True,2021-03-26T00:00:00.000Z,A+,A+,A,F,A,2018,2021-03-26T00:00:00.000Z
227,487,"Huntington City Beach, projection of Beach Blvd.",Huntington City Beach,33.645938000000000,-117.988109000000000,,Costa Mesa,Orange,CA,92627,Orange,True,2021-03-26T00:00:00.000Z,A+,A+,A+,B,A,2018,2021-03-26T00:00:00.000Z
228,2090,Huntington Harbor Admiralty Drive,Huntington Harbor,33.72083,-118.0711667,,Huntington Beach,Orange,CA,92649,Orange,False,,,,,,,,
229,2089,Huntington Harbor Gas Dock at Anaheim Bay,Huntington Harbor Anaheim Bay,33.71183,-118.0816667,,Huntington Beach,Orange,CA,92649,Orange,False,,,,,,,,
230,2091,Huntington Harbor Harbor Channel,Huntington Harbor,33.71966,-118.0648133,,Huntington Beach,Orange,CA,92649,Orange,False,,,,,,,,
231,2106,"Huntington Harbor, Anderson Street Marina",Huntington Harbor,33.72533,-118.0766667,,Huntington Beach,Orange,CA,92649,Orange,False,,,,,,,,
232,2104,"Huntington Harbor, Clubhouse Marina",Huntington Harbor,33.71213,-118.0555441,,Huntington Beach,Orange,CA,92649,Orange,False,,,,,,,,
233,541,"Huntington Harbor, Coral Cay Beach",Huntington Harbor,33.716220000000000,-118.064446000000000,,Huntington Beach,Orange,CA,92649,Orange,True,2021-04-02T00:00:00.000Z,A+,ns,A,F,A,2018,2021-04-02T00:00:00.000Z
234,2105,"Huntington Harbor, Sunset Aquatic Park",Huntington Harbor,33.72783,-118.0756667,,Huntington Beach,Orange,CA,92649,Orange,False,,,,,,,,
235,163,"Huntington Harbour, 11th Street Beach",Huntington Harbor,33.717180000000000,-118.069240000000000,,Huntington Beach,Orange,CA,92649,Orange,True,2021-04-02T00:00:00.000Z,A+,ns,A+,F,A+,2018,2021-04-02T00:00:00.000Z
236,162,"Huntington Harbour, Davenport Beach",Huntington Harbor,33.716928000000000,-118.058170000000000,,Huntington Beach,Orange,CA,92649,Orange,True,2021-04-02T00:00:00.000Z,A,ns,A,F,A+,2018,2021-04-02T00:00:00.000Z
237,161,"Huntington Harbour, Humboldt Beach",Huntington Harbor,33.725343000000000,-118.056506000000000,,Huntington Beach,Orange,CA,92649,Orange,True,2021-04-02T00:00:00.000Z,A+,ns,A,F,A+,2018,2021-04-02T00:00:00.000Z
238,158,"Huntington Harbour, Mothers Beach",Huntington Harbor,33.726395000000000,-118.071166000000000,,Huntington Beach,Orange,CA,92649,Orange,True,2021-04-02T00:00:00.000Z,A+,ns,A,F,C,2018,2021-04-02T00:00:00.000Z
239,160,"Huntington Harbour, Seagate Lagoon",Huntington Harbor,33.728950000000000,-118.064700000000000,,Fountain Valley,Orange,CA,92708,Orange,True,2021-04-02T00:00:00.000Z,A+,ns,A,D,A+,2018,2021-04-02T00:00:00.000Z
240,159,"Huntington Harbour, Trinidad Lane Beach",Huntington Harbor,33.726636000000000,-118.065782000000000,,Huntington Beach,Orange,CA,92649,Orange,True,2021-04-02T00:00:00.000Z,A+,ns,A+,F,A+,2018,2021-04-02T00:00:00.000Z
241,148,"Huntington State Beach- power plant, projection of Newland St.",Huntington State Beach,33.641700000000000,-117.981260000000000,,Huntington Beach,Orange,CA,92646,Orange,True,2021-04-02T00:00:00.000Z,A+,A+,A,D,A,2018,2021-04-02T00:00:00.000Z
242,150,Huntington State Beach- projection of Brookhurst,Huntington State Beach,33.632909000000000,-117.966236000000000,,Huntington Beach,Orange,CA,92646,Orange,True,2021-04-02T00:00:00.000Z,B,D,A,D,A,2018,2021-04-02T00:00:00.000Z
243,149,Huntington State Beach- projection of Magnolia Street,Huntington State Beach,33.638235000000000,-117.975552000000000,,Huntington Beach,Orange,CA,92646,Orange,True,2021-04-02T00:00:00.000Z,B,F,A,D,A+,2018,2021-04-02T00:00:00.000Z
244,374,"Imperial Beach, Imperial Beach Pier",Imperial Beach,32.579416000000000,-117.132953000000000,,Imperial Beach,San Diego,CA,91932,San Diego,True,2021-03-26T00:00:00.000Z,A,F,A,F,ns,2018,2021-03-26T00:00:00.000Z
245,372,"Imperial Beach, projection of Carnation Av.",Imperial Beach,32.585643000000000,-117.132675000000000,,Imperial Beach,San Diego,CA,91932,San Diego,True,2021-04-02T00:00:00.000Z,A,C,A+,F,ns,2018,2021-04-02T00:00:00.000Z
246,376,"Imperial Beach, projection of Cortez Av.",Imperial Beach,32.572690000000000,-117.132680000000000,,Imperial Beach,San Diego,CA,91932,San Diego,True,2021-04-02T00:00:00.000Z,D,F,ns,F,ns,2018,2021-04-02T00:00:00.000Z
247,373,"Imperial Beach, projection of Palm Av.",Imperial Beach,32.584700000000000,-117.133000000000000,,Imperial Beach,San Diego,CA,91932,San Diego,False,2019-03-15T00:00:00.000Z,ns,,,,,,2019-03-15T00:00:00.000Z
248,515,Imperial Beach- Camp Surf Jetty,Imperial Beach,32.587763000000000,-117.132753000000000,,Imperial Beach,San Diego,CA,91932,San Diego,False,2019-03-15T00:00:00.000Z,ns,,,,,,2019-03-15T00:00:00.000Z
249,377,Imperial Beach. south end of Seacoast Dr.,Imperial Beach,32.566363000000000,-117.132747000000000,,Imperial Beach,San Diego,CA,91932,San Diego,True,2021-04-02T00:00:00.000Z,F,F,A,F,ns,2018,2021-04-02T00:00:00.000Z
250,1063,Islais Landing at Islais Creek,Islais Landing,37.747083000000000,-122.387917000000000,,San Francisco,San Francisco,CA,94124,San Francisco,True,2021-04-02T00:00:00.000Z,A,B,,,,,2021-04-02T00:00:00.000Z
251,67,Jalama Beach at Jalama Creek,Jalama Beach,34.511367000000000,-120.503550000000000,,Lompoc,Santa Barbara,CA,93436,Santa Barbara,True,2021-04-02T00:00:00.000Z,A+,A+,A+,B,ns,2018,2021-04-02T00:00:00.000Z
252,554,Kehoe Beach,,38.154539000000000,-122.950206000000000,,,Marin,CA,,Marin,False,,,,,,,,
253,614,Keller Beach Mid Beach,Keller Beach,37.920813000000000,-122.386727000000000,,Richmond,Contra Costa,CA,94801,Contra Costa,True,2019-03-15T00:00:00.000Z,ns,,,,,,2019-03-15T00:00:00.000Z
254,613,Keller Beach North Beach,Keller Beach,37.921050000000000,-122.386938000000000,,Richmond,Contra Costa,CA,94801,Contra Costa,True,2021-04-02T00:00:00.000Z,A+,A+,B,A,ns,2018,2021-04-02T00:00:00.000Z
255,615,Keller Beach South Beach,Keller Beach,37.920659000000000,-122.386572000000000,,Richmond,Contra Costa,CA,94801,Contra Costa,True,2021-04-02T00:00:00.000Z,A+,A+,B,A,ns,2018,2021-04-02T00:00:00.000Z
256,631,Kiteboard Beach,Kiteboard Beach,37.571472000000000,-122.278788000000000,,Foster City,San Mateo,CA,94404,San Mateo,True,2021-04-02T00:00:00.000Z,B,A+,ns,B,ns,2018,2021-04-02T00:00:00.000Z
257,84,La Conchita Beach - Storm Drain Outfall,La Conchita Beach,34.364201000000000,-119.450103000000000,,Carpinteria,Ventura,CA,93013,Ventura,True,2020-11-06T00:00:00.000Z,A+,ns,A+,A+,ns,2018,2020-11-06T00:00:00.000Z
258,517,"La Jolla Shores, El Paseo Grande",La Jolla Shores,32.862940000000000,-117.255660000000000,,La Jolla,San Diego,CA,92037,San Diego,False,2021-01-22T00:00:00.000Z,A+,ns,A+,ns,B,2018,2021-01-22T00:00:00.000Z
259,639,"La Jolla Shores, Roseland Dr",La Jolla Shores,32.852138000000000,-117.261110000000000,,,San Diego,CA,,San Diego,False,2019-03-15T00:00:00.000Z,ns,,,,,,2019-03-15T00:00:00.000Z
260,311,"La Jolla Shores, Scripps Pier (south side)",La Jolla Shores,32.865861000000000,-117.254683000000000,,La Jolla,San Diego,CA,92037,San Diego,False,2019-03-15T00:00:00.000Z,ns,,,,,,2019-03-15T00:00:00.000Z
261,313,"La Jolla Shores, projection of Ave. Del La Playa",La Jolla Shores,32.854782000000000,-117.259467000000000,,La Jolla,San Diego,CA,92037,San Diego,True,2021-04-02T00:00:00.000Z,D,ns,A+,A+,ns,2018,2021-04-02T00:00:00.000Z
262,2077,"La Jolla, Children's Pool",La Jolla,32.847500000000000,-117.278200000000000,,La Jolla,San Diego,CA,92037,San Diego,True,2021-01-15T00:00:00.000Z,C,ns,,,,,2021-01-15T00:00:00.000Z
263,317,"La Jolla, Coast Blvd. (north of Nicholson Pt.)",La Jolla,32.839500000000000,-117.282500000000000,,La Jolla,San Diego,CA,92037,San Diego,False,2019-03-15T00:00:00.000Z,ns,,,,,,2019-03-15T00:00:00.000Z
264,540,"La Jolla, Coast Blvd. gazebo",La Jolla,32.844069000000000,-117.279803000000000,,La Jolla,San Diego,CA,92037,San Diego,False,2019-03-15T00:00:00.000Z,ns,,,,,,2019-03-15T00:00:00.000Z
265,314,"La Jolla, La Jolla Cove",La Jolla,32.850341000000000,-117.272676000000000,,La Jolla,San Diego,CA,92037,San Diego,True,2021-04-02T00:00:00.000Z,A+,ns,A,ns,ns,2018,2021-04-02T00:00:00.000Z
266,2078,"La Jolla, Palomar Avenue",La Jolla,32.826050000000000,-117.279830000000000,,La Jolla,San Diego,CA,92037,San Diego,True,2021-02-19T00:00:00.000Z,A+,A+,,,,,2021-02-19T00:00:00.000Z
267,318,"La Jolla, Ravina (south of Nicholson Pt.)",La Jolla,32.839328000000000,-117.281893000000000,,La Jolla,San Diego,CA,92037,San Diego,True,2021-02-19T00:00:00.000Z,A+,A+,A,ns,ns,2018,2021-02-19T00:00:00.000Z
268,411,"La Jolla, South Casa Beach just south of Children's Pool",La Jolla,32.846775000000000,-117.278858000000000,,La Jolla,San Diego,CA,92037,San Diego,True,2021-01-22T00:00:00.000Z,A+,ns,A,ns,ns,2018,2021-01-22T00:00:00.000Z
269,2076,"La Jolla, Vallecitos",La Jolla,32.855620000000000,-117.258190000000000,,La Jolla,San Diego,CA,92037,San Diego,True,2021-01-22T00:00:00.000Z,A+,ns,,,,,2021-01-22T00:00:00.000Z
270,215,Laguna Beach - Goff Island Beach,Goff Island Beach,33.514351000000000,-117.758950000000000,,Laguna Niguel,Orange,CA,92651,Orange,True,2021-03-26T00:00:00.000Z,A+,A+,A+,A+,A,2018,2021-03-26T00:00:00.000Z
271,216,Laguna Beach - Treasure Island Beach,Treasure Island Beach,33.513390000000000,-117.757089000000000,,Laguna Niguel,Orange,CA,92651,Orange,True,2021-03-26T00:00:00.000Z,A+,A+,A,A+,A,2018,2021-03-26T00:00:00.000Z
272,1071,Laguna Beach - between Pearl & Agate Street (point zero),Laguna Main Beach,33.528090000000000,-117.772750000000000,,Laguna Niguel,Orange,CA,92651,Orange,True,2021-02-12T00:00:00.000Z,A+,ns,,,,,2021-02-12T00:00:00.000Z
273,430,Laguna Beach at Laguna Creek,Laguna Beach,118.000000000000000,80.000000000000000,,,Santa Cruz,CA,,Santa Cruz,False,2019-03-15T00:00:00.000Z,ns,,,,,,2019-03-15T00:00:00.000Z
274,214,Laguna Beach- Blue Lagoon near Lagunita Pl.,Blue Lagoon,33.516806000000000,-117.761369000000000,,Capistrano Beach,Orange,CA,92624,Orange,True,2020-08-21T00:00:00.000Z,A+,A+,,,,,2020-08-21T00:00:00.000Z
275,209,Laguna Beach- Crescent Bay Beach,Crescent Bay Beach,33.546404000000000,-117.801520000000000,,Laguna Niguel,Orange,CA,92651,Orange,True,2021-03-19T00:00:00.000Z,A+,ns,A+,A+,A,2018,2021-03-19T00:00:00.000Z
276,210,Laguna Beach- Laguna Main Beach,Laguna Main Beach,33.541910000000000,-117.785470000000000,,Laguna Niguel,Orange,CA,92651,Orange,True,2021-02-12T00:00:00.000Z,A+,ns,,,,,2021-02-12T00:00:00.000Z
277,212,Laguna Beach- Projection of Bluebird Canyon,Laguna Main Beach,33.529578000000000,-117.773842000000000,,Laguna Niguel,Orange,CA,92651,Orange,True,2021-02-12T00:00:00.000Z,A+,ns,,,,,2021-02-12T00:00:00.000Z
278,211,Laguna Beach- Projection of Laguna Hotel,Laguna Main Beach,33.540778000000000,-117.783958000000000,,Laguna Niguel,Orange,CA,92651,Orange,True,2021-02-12T00:00:00.000Z,A+,ns,,,,,2021-02-12T00:00:00.000Z
279,297,Laguna Beach- Treasure Island Pier,,118.000000000000000,500.000000000000000,,,Orange,CA,,Orange,False,,,,,,,,
280,213,Laguna Beach- Victoria Beach at Dumond Dr.,Victoria Beach,33.519190000000000,-117.763020000000000,,Laguna Niguel,Orange,CA,92651,Orange,True,2021-02-12T00:00:00.000Z,A+,ns,,,,,2021-02-12T00:00:00.000Z
281,633,Lakeshore Park - behind Rec Center,Marina Lagoon,37.549547000000000,-122.285857000000000,,San Mateo,San Mateo,CA,94403,San Mateo,True,2020-12-04T00:00:00.000Z,A,ns,F,F,ns,2018,2020-12-04T00:00:00.000Z
282,600,Las Flores State Beach at Las Flores Creek (point zero),Las Flores State Beach,34.036073000000000,-118.636588000000000,,Malibu,Los Angeles -- LA City,CA,90265,Los Angeles -- LA City,True,2021-04-02T00:00:00.000Z,A+,A+,A,A+,A+,2018,2021-04-02T00:00:00.000Z
283,6,Latigo Canyon Creek mouth,Latigo Canyon Creek,34.028706000000000,-118.753503000000000,,Malibu,Los Angeles,CA,90265,Los Angeles,True,2021-04-02T00:00:00.000Z,A,ns,,,,,2021-04-02T00:00:00.000Z
284,543,Lawson's Landing,Lawson's Landing,38.231617000000000,-122.967841000000000,,Tomales,Marin,CA,94971,Marin,True,2020-11-06T00:00:00.000Z,C,ns,A+,A+,ns,2018,2020-11-06T00:00:00.000Z
285,75,Leadbetter Beach at Honda Creek,Leadbetter Beach,34.402404000000000,-119.695025000000000,,Santa Barbara,Santa Barbara,CA,93109,Santa Barbara,True,2021-04-02T00:00:00.000Z,A+,ns,B,F,A,2018,2021-04-02T00:00:00.000Z
286,1,"Leo Carrillo Beach, at Arroyo Sequit Creek mouth",Leo Carrillo Beach,34.044309000000000,-118.933493000000000,,Malibu,Los Angeles,CA,90265,Los Angeles,True,2021-04-02T00:00:00.000Z,A+,ns,A,B,A,2018,2021-04-02T00:00:00.000Z
287,405,"Leucadia, projection of Grandview St.",Leucadia,33.029500000000000,-117.308900000000000,,Encinitas,San Diego,CA,92024,San Diego,False,2019-03-15T00:00:00.000Z,ns,,,,,,2019-03-15T00:00:00.000Z
288,433,Lighthouse Beach (Steamer Lane),Lighthouse Beach,36.951646000000000,-122.028639000000000,,Scotts Valley,Santa Cruz,CA,95060,Santa Cruz,True,2020-01-10T00:00:00.000Z,A+,ns,ns,A+,ns,2018,2020-01-10T00:00:00.000Z
289,556,Limantour Beach,Limantour Beach,38.025300000000000,-122.883400000000000,,,Marin,CA,,Marin,True,2019-03-15T00:00:00.000Z,ns,,,,,,2019-03-15T00:00:00.000Z
290,1050,Linda Lane Beach (Point Zero),San Clemente,33.422610000000000,-117.623720000000000,,,Orange,CA,,Orange,True,2021-02-12T00:00:00.000Z,A+,ns,,,,,2021-02-12T00:00:00.000Z
291,464,Linda Mar Beach at San Pedro Creek,Linda Mar Beach,37.596716000000000,-122.505837000000000,,Pacifica,San Mateo,CA,94044,San Mateo,True,2021-04-02T00:00:00.000Z,C,C,F,F,F,2018,2021-04-02T00:00:00.000Z
292,463,"Linda Mar Beach, projection of Crespi Dr.",Linda Mar Beach,37.600242000000000,-122.501400000000000,,Pacifica,San Mateo,CA,94044,San Mateo,False,2019-03-15T00:00:00.000Z,ns,,,,,,2019-03-15T00:00:00.000Z
293,962,Little Dume drainage projection of Zumirez Dr.,Little Dume,34.016850000000000,-118.789550000000000,,Malibu,Los Angeles -- LA City,CA,90265,Los Angeles -- LA City,True,2019-08-23T00:00:00.000Z,B,B,B,B,A,2018,2019-08-23T00:00:00.000Z
294,192,Long Beach City Beach- projection of 10th Place,Long Beach,33.763377000000000,-118.173642000000000,,Long Beach,Los Angeles -- Long Beach,CA,90802,Los Angeles -- Long Beach,True,2021-04-02T00:00:00.000Z,B,A+,A,F,B,2018,2021-04-02T00:00:00.000Z
295,193,Long Beach City Beach- projection of 16th Place,Long Beach,33.762625000000000,-118.167949000000000,,Long Beach,Los Angeles -- Long Beach,CA,90802,Los Angeles -- Long Beach,False,2019-03-15T00:00:00.000Z,ns,,,,,,2019-03-15T00:00:00.000Z
296,196,Long Beach City Beach- projection of 36th Place,Long Beach,33.758683333000000,-118.151283333000000,,Long Beach,Los Angeles -- Long Beach,CA,90803,Los Angeles -- Long Beach,False,2019-03-15T00:00:00.000Z,ns,,,,,,2019-03-15T00:00:00.000Z
297,190,Long Beach City Beach- projection of 3rd Place,Long Beach,33.763221000000000,-118.179647000000000,,Long Beach,Los Angeles -- Long Beach,CA,90802,Los Angeles -- Long Beach,False,2019-03-15T00:00:00.000Z,ns,,,,,,2019-03-15T00:00:00.000Z
298,188,Long Beach City Beach- projection of 54th Place,Long Beach,33.751566666000000,-118.133483333000000,,Long Beach,Los Angeles -- Long Beach,CA,90803,Los Angeles -- Long Beach,False,2019-03-15T00:00:00.000Z,ns,,,,,,2019-03-15T00:00:00.000Z
299,189,Long Beach City Beach- projection of 55th Place,Long Beach,33.750133333000000,-118.129883333000000,,Long Beach,Los Angeles -- Long Beach,CA,90803,Los Angeles -- Long Beach,True,2021-04-02T00:00:00.000Z,A+,A+,A,F,A,2018,2021-04-02T00:00:00.000Z
300,191,Long Beach City Beach- projection of 5th Place,Long Beach,33.763392000000000,-118.178218000000000,,Long Beach,Los Angeles -- Long Beach,CA,90802,Los Angeles -- Long Beach,True,2021-04-02T00:00:00.000Z,B,D,A,F,B,2018,2021-04-02T00:00:00.000Z
301,131,Long Beach City Beach- projection of 62nd Place,Long Beach,33.747633333000000,-118.123433333000000,,Long Beach,Los Angeles -- Long Beach,CA,90803,Los Angeles -- Long Beach,False,2019-03-15T00:00:00.000Z,ns,,,,,,2019-03-15T00:00:00.000Z
302,132,Long Beach City Beach- projection of 72nd Place,Long Beach,33.745150000000000,-118.119183333000000,,Long Beach,Los Angeles -- Long Beach,CA,90803,Los Angeles -- Long Beach,True,2021-03-26T00:00:00.000Z,A,D,A,F,A,2018,2021-03-26T00:00:00.000Z
303,195,Long Beach City Beach- projection of Coronado Ave.,Long Beach,33.759700000000000,-118.154933333000000,,Long Beach,Los Angeles -- Long Beach,CA,90803,Los Angeles -- Long Beach,True,2021-04-02T00:00:00.000Z,B,A+,B,F,A,2018,2021-04-02T00:00:00.000Z
304,201,Long Beach City Beach- projection of Granada Ave.,Long Beach,33.754350000000000,-118.140000000000000,,Long Beach,Los Angeles -- Long Beach,CA,90803,Los Angeles -- Long Beach,True,2021-04-02T00:00:00.000Z,A+,ns,B,F,B,2018,2021-04-02T00:00:00.000Z
305,194,Long Beach City Beach- projection of Molino Ave.,Long Beach,33.761390000000000,-118.162270000000000,,Long Beach,Los Angeles -- Long Beach,CA,90803,Los Angeles -- Long Beach,True,2021-04-02T00:00:00.000Z,F,C,A,F,B,2018,2021-04-02T00:00:00.000Z
306,200,Long Beach City Beach- projection of Prospect Ave.,Long Beach,33.756200000000000,-118.143966666000000,,Long Beach,Los Angeles -- Long Beach,CA,90803,Los Angeles -- Long Beach,True,2021-04-02T00:00:00.000Z,D,B,A,F,C,2018,2021-04-02T00:00:00.000Z
307,54,"Long Point, Rancho Palos Verdes",Long Point,33.740900000000000,-118.404000000000000,,Rancho Palos Verdes,Los Angeles -- LA Sanitation,CA,90275,Los Angeles -- LA Sanitation,True,2021-04-02T00:00:00.000Z,A+,B,,,,,2021-04-02T00:00:00.000Z
308,455,"Lover's Point Park, projection of 16th Street",Lover's Point Park,36.624874000000000,-121.916300000000000,,Pacific Grove,Monterey,CA,93950,Monterey,True,2021-03-05T00:00:00.000Z,B,ns,A+,A+,ns,2018,2021-03-05T00:00:00.000Z
309,537,Luffenholtz Beach near Luffenholtz Creek,Luffenholtz Beach,41.041970000000000,-124.120654000000000,,Westhaven,Humboldt,CA,95570,Humboldt,True,2020-11-06T00:00:00.000Z,A,ns,F,D,ns,2018,2020-11-06T00:00:00.000Z
310,647,Lunada Bay sewage spill closure,,33.770809000000000,-118.422344000000000,,,Los Angeles,CA,,Los Angeles,False,2010-02-09T00:00:00.000Z,ns,ns,,,,,2010-02-09T00:00:00.000Z
311,621,MacKerricher State Park at Mill Creek,MacKerricher State Park,39.489643000000000,-123.798936000000000,,Fort Bragg,Mendocino,CA,95437,Mendocino,False,2019-03-15T00:00:00.000Z,ns,,,,,,2019-03-15T00:00:00.000Z
312,575,MacKerricher State Park at Virgin Creek,MacKerricher State Park,39.472924000000000,-123.805288000000000,,Fort Bragg,Mendocino,CA,95437,Mendocino,True,2019-11-08T00:00:00.000Z,A+,A+,ns,C,ns,2018,2019-11-08T00:00:00.000Z
313,578,Mad River Mouth (north),Mad River Mouth,40.953353000000000,-124.129590000000000,,Mc Kinleyville,Humboldt,CA,95521,Humboldt,True,2020-11-06T00:00:00.000Z,A+,ns,A+,A+,ns,2018,2020-11-06T00:00:00.000Z
314,646,Main Beach Lifeguard Tower 2,Santa Cruz Main Beach,36.962554000000000,-122.020843000000000,,Santa Cruz,Santa Cruz,CA,95060,Santa Cruz,False,2019-03-15T00:00:00.000Z,ns,,,,,,2019-03-15T00:00:00.000Z
315,52,"Malaga Cove, Palos Verdes Estates - at rocks",Malaga Cove,33.803421000000000,-118.396134000000000,,Palos Verdes Est,Los Angeles -- LA Sanitation,CA,90274,Los Angeles -- LA Sanitation,True,2021-04-02T00:00:00.000Z,A+,A+,,,,,2021-04-02T00:00:00.000Z
316,51,"Malaga Cove, Palos Verdes Estates - at trail outlet",Malaga Cove,33.804349000000000,-118.394659000000000,,Palos Verdes Est,Los Angeles -- Redondo,CA,90274,Los Angeles -- Redondo,True,2021-04-02T00:00:00.000Z,A+,A+,,,,,2021-04-02T00:00:00.000Z
317,11,Malibu Pier - 50 yards east,Surfrider Beach,34.037138000000000,-118.675995000000000,,Malibu,Los Angeles,CA,90265,Los Angeles,True,2021-04-02T00:00:00.000Z,A,ns,,,,,2021-04-02T00:00:00.000Z
318,90,Mandos Cove - Storm Drain Outfall,Mandos Cove,34.321022000000000,-119.375788000000000,,San Buenaventura,Ventura,CA,93001,Ventura,True,2020-11-06T00:00:00.000Z,A+,ns,A,A+,ns,2018,2020-11-06T00:00:00.000Z
319,44,Manhattan Beach Pier drain,Manhattan Beach,33.883814000000000,-118.413234000000000,,Manhattan Beach,Los Angeles -- Redondo,CA,90266,Los Angeles -- Redondo,True,2021-04-02T00:00:00.000Z,A+,A+,A,A+,A+,2018,2021-04-02T00:00:00.000Z
320,507,Manhattan Beach at 28th St. drain,Manhattan Beach,33.894457000000000,-118.418925000000000,,Manhattan Beach,Los Angeles,CA,90266,Los Angeles,True,2021-04-02T00:00:00.000Z,A+,D,,,,,2021-04-02T00:00:00.000Z
321,43,Manhattan Beach- projection of 40th St.,El Porto Beach,33.901799000000000,-118.422003000000000,,Manhattan Beach,Los Angeles -- Redondo,CA,90266,Los Angeles -- Redondo,True,2021-04-02T00:00:00.000Z,A+,A+,,,,,2021-04-02T00:00:00.000Z
322,449,Manresa Beach,Manresa Beach,36.931881000000000,-121.863115000000000,,La Selva Beach,Santa Cruz,CA,95076,Santa Cruz,True,2020-07-17T00:00:00.000Z,A+,ns,ns,A+,ns,2018,2020-07-17T00:00:00.000Z
323,598,"Marie Canyon storm drain at Puerco Beach, at 24572 Malibu Rd.",Puerco State Beach,34.030416000000000,-118.711263000000000,,Malibu,Los Angeles -- LA City,CA,90265,Los Angeles -- LA City,True,2021-04-02T00:00:00.000Z,D,A+,B,F,A,2018,2021-04-02T00:00:00.000Z
324,103,Marina Park Beach- Across from Playground,Marina Park Beach,34.253824000000000,-119.269774000000000,,San Buenaventura,Ventura,CA,93001,Ventura,True,2020-11-06T00:00:00.000Z,A+,ns,A+,A+,ns,2018,2020-11-06T00:00:00.000Z
325,33,"Marina del Rey, Mothers' Beach - playground area",Marina del Rey Harbor,33.979872000000000,-118.457486000000000,,Marina Del Rey,Los Angeles,CA,90292,Los Angeles,True,2021-04-02T00:00:00.000Z,F,C,,,,,2021-04-02T00:00:00.000Z
326,34,"Marina del Rey, Mothers' Beach- between lifeguard and dock",Marina del Rey Harbor,33.981700000000000,-118.457000000000000,,Marina Del Rey,Los Angeles,CA,90292,Los Angeles,True,2021-04-02T00:00:00.000Z,C,A+,,,,,2021-04-02T00:00:00.000Z
327,32,"Marina del Rey, Mothers' Beach- lifeguard tower",Marina del Rey Harbor,33.980758000000000,-118.457791000000000,,Marina Del Rey,Los Angeles -- LA City,CA,90292,Los Angeles -- LA City,True,2021-04-02T00:00:00.000Z,F,C,,,,,2021-04-02T00:00:00.000Z
328,1049,Mariposa Beach (Point Zero),San Clemente,33.424100000000000,-117.625580000000000,,,Orange,CA,,Orange,True,2021-02-12T00:00:00.000Z,A+,ns,,,,,2021-02-12T00:00:00.000Z
329,2085,Marlin Park,Marlin Park,37.558750000,-122.2540280000,,Foster City,San Mateo,CA,94404,San Mateo,True,2021-04-02T00:00:00.000Z,B,A+,,,,,2021-04-02T00:00:00.000Z
330,545,Marshall Beach,,118.000000000000000,3.000000000000000,,,Marin,CA,,Marin,False,,,,,,,,
331,553,McClures Beach,,118.000000000000000,3.000000000000000,,,Marin,CA,,Marin,False,,,,,,,,
332,107,McGrath State Beach- 1/2 mi. north of Gonzales Rd.,McGrath State Beach,34.223129000000000,-119.262310000000000,,Oxnard,Ventura,CA,93035,Ventura,False,2019-03-15T00:00:00.000Z,ns,,,,,,2019-03-15T00:00:00.000Z
333,108,McGrath State Beach- projection of Gonzales Rd.,McGrath State Beach,34.218764000000000,-119.260305000000000,,Oxnard,Ventura,CA,93035,Ventura,False,2019-03-15T00:00:00.000Z,ns,,,,,,2019-03-15T00:00:00.000Z
334,109,McGrath State Beach- south end of McGrath Lake,McGrath State Beach,34.208627000000000,-119.255304000000000,,Oxnard,Ventura,CA,93035,Ventura,False,2019-03-15T00:00:00.000Z,ns,,,,,,2019-03-15T00:00:00.000Z
335,574,McNears Beach,McNears Beach,37.992600000000000,-122.452600000000000,,San Rafael,Marin,CA,94901,Marin,True,2020-11-06T00:00:00.000Z,A,ns,B,A+,ns,2018,2020-11-06T00:00:00.000Z
336,544,Miller Park,Miller Park,38.199900000000000,-122.921600000000000,,,Marin,CA,,Marin,True,2020-11-06T00:00:00.000Z,A,ns,A+,A+,ns,2018,2020-11-06T00:00:00.000Z
337,552,Millerton Point,Millerton Point,38.107400000000000,-122.845200000000000,,,Marin,CA,,Marin,True,2020-11-06T00:00:00.000Z,A+,ns,B,A,ns,2018,2020-11-06T00:00:00.000Z
338,412,"Mission Bay, Bahia Point - northside (apex of Gleason Rd.)",Mission Bay,32.775000000000000,-117.245000000000000,,San Diego,San Diego,CA,92109,San Diego,True,2021-04-02T00:00:00.000Z,A+,ns,A,ns,ns,2018,2021-04-02T00:00:00.000Z
339,526,"Mission Bay, Bonita Cove (east cove)",Mission Bay,32.769457000000000,-117.247089000000000,,San Diego,San Diego,CA,92109,San Diego,True,2019-03-15T00:00:00.000Z,ns,,A,ns,ns,2018,2019-03-15T00:00:00.000Z
340,331,"Mission Bay, Bonita Cove (north cove)",,118.000000000000000,800.000000000000000,,,San Diego,CA,,San Diego,False,,,,,,,,
341,341,"Mission Bay, Campland (west of Rose Creek)",Mission Bay,32.795000000000000,-117.221700000000000,,San Diego,San Diego,CA,92109,San Diego,True,2021-04-02T00:00:00.000Z,A,ns,A,ns,ns,2018,2021-04-02T00:00:00.000Z
342,530,"Mission Bay, Comfort Station north of Leisure Lagoon",Mission Bay,32.784189000000000,-117.209189000000000,,San Diego,San Diego,CA,92109,San Diego,True,2021-04-02T00:00:00.000Z,A+,ns,A,ns,ns,2018,2021-04-02T00:00:00.000Z
343,339,"Mission Bay, Crown Point Shores",Mission Bay,32.783300000000000,-117.231700000000000,,San Diego,San Diego,CA,92109,San Diego,False,2020-11-06T00:00:00.000Z,A+,ns,A,ns,ns,2018,2020-11-06T00:00:00.000Z
344,416,"Mission Bay, Crown Point watercraft area",,118.000000000000000,800.000000000000000,,,San Diego,CA,,San Diego,False,,,,,,,,
345,418,"Mission Bay, DeAnza Cove (mid-cove)",Mission Bay,32.796793000000000,-117.214194000000000,,San Diego,San Diego,CA,92109,San Diego,True,2020-11-06T00:00:00.000Z,A+,ns,A,ns,ns,2018,2020-11-06T00:00:00.000Z
346,342,"Mission Bay, DeAnza Cove - swim area","Mission Bay, DeAnza Cove",-117.220000000000000,32.788300000000000,,,San Diego,CA,,San Diego,False,2019-03-15T00:00:00.000Z,ns,,,,,,2019-03-15T00:00:00.000Z
347,337,"Mission Bay, Fanuel Park (proj. of Fanuel St.)",Mission Bay,32.791700000000000,-117.245000000000000,,San Diego,San Diego,CA,92109,San Diego,True,2021-04-02T00:00:00.000Z,A+,ns,A,ns,ns,2018,2021-04-02T00:00:00.000Z
348,532,"Mission Bay, Fiesta Island Bridge (south side)",Mission Bay,32.768240000000000,-117.211421000000000,,San Diego,San Diego,CA,92109,San Diego,False,2019-03-15T00:00:00.000Z,ns,,,,,,2019-03-15T00:00:00.000Z
349,415,"Mission Bay, La Cima shoreline (Riviera)",,118.000000000000000,800.000000000000000,,,San Diego,CA,,San Diego,False,,,,,,,,
350,529,"Mission Bay, Leisure Lagoon",Mission Bay,32.781979000000000,-117.210281000000000,,San Diego,San Diego,CA,92110,San Diego,False,2019-03-15T00:00:00.000Z,ns,,,,,,2019-03-15T00:00:00.000Z
351,420,"Mission Bay, Leisure Lagoon (swim area)",Mission Bay,118.000000000000000,800.000000000000000,,,San Diego,CA,,San Diego,False,2019-03-15T00:00:00.000Z,ns,,A,ns,ns,2018,2019-03-15T00:00:00.000Z
352,330,"Mission Bay, Mariners Basin (proj. of Balboa Ct.)",Mission Beach,32.762450000000000,-117.249130000000000,,San Diego,San Diego,CA,92109,San Diego,False,2021-04-02T00:00:00.000Z,A+,ns,,,,,2021-04-02T00:00:00.000Z
353,347,"Mission Bay, North Pacific Passage",,118.000000000000000,800.000000000000000,,,San Diego,CA,,San Diego,False,,,,,,,,
354,349,"Mission Bay, Perez Cove",,118.000000000000000,800.000000000000000,,,San Diego,CA,,San Diego,False,,,,,,,,
355,336,"Mission Bay, Sail Bay (proj. of Whitting Ct.)","Mission Bay, Sail Bay",32.788300000000000,-117.251700000000000,,San Diego,San Diego,CA,92109,San Diego,False,2019-03-15T00:00:00.000Z,ns,,,,,,2019-03-15T00:00:00.000Z
356,413,"Mission Bay, Santa Barbara Cove (proj. Isthmus Ct.)",,118.000000000000000,800.000000000000000,,,San Diego,CA,,San Diego,False,,,,,,,,
357,335,"Mission Bay, Santa Clara Cove (proj. of Portsmouth Ct.)",,118.000000000000000,800.000000000000000,,,San Diego,CA,,San Diego,False,,,,,,,,
358,424,"Mission Bay, Sea World marina, west outfall",,118.000000000000000,800.000000000000000,,,San Diego,CA,,San Diego,False,,,,,,,,
359,425,"Mission Bay, South Pacific Passage, east outfall",,118.000000000000000,800.000000000000000,,,San Diego,CA,,San Diego,False,,,,,,,,
360,348,"Mission Bay, Tecolote Creek",,0.000000000000000,0.000000000000000,,,San Diego,CA,,San Diego,False,,,,,,,,
361,423,"Mission Bay, Tecolote Shores (swim area)",Mission Bay,118.000000000000000,800.000000000000000,,,San Diego,CA,,San Diego,False,2021-03-19T00:00:00.000Z,A+,ns,A,ns,ns,2018,2021-03-19T00:00:00.000Z
362,534,"Mission Bay, Tecolote Shores drain",Mission Bay,32.776026000000000,-117.210752000000000,,San Diego,San Diego,CA,92110,San Diego,False,2019-03-15T00:00:00.000Z,ns,,,,,,2019-03-15T00:00:00.000Z
363,422,"Mission Bay, Tecolote playground (watercraft area)",Mission Bay,32.770797000000000,-117.209324000000000,,San Diego,San Diego,CA,92109,San Diego,True,2021-03-19T00:00:00.000Z,A,ns,A,ns,ns,2018,2021-03-19T00:00:00.000Z
364,353,"Mission Bay, Vacation Isle (btwn Ingram St. and south cove)",,118.000000000000000,800.000000000000000,,,San Diego,CA,,San Diego,False,,,,,,,,
365,612,"Mission Bay, Vacation Isle North Cove Beach",Mission Bay,32.776039000000000,-117.237694000000000,,San Diego,San Diego,CA,92109,San Diego,True,2021-04-02T00:00:00.000Z,A+,ns,A,ns,ns,2018,2021-04-02T00:00:00.000Z
366,531,"Mission Bay, Vacation Isle Ski Beach",Mission Bay,32.775940000000000,-117.232796400000000,,San Diego,San Diego,CA,92109,San Diego,True,2020-11-06T00:00:00.000Z,A,ns,A,ns,ns,2018,2020-11-06T00:00:00.000Z
367,533,"Mission Bay, Ventura Cove",Mission Bay,32.770880000000000,-117.244680000000000,,San Diego,San Diego,CA,92109,San Diego,False,2020-11-13T00:00:00.000Z,A+,ns,,,,,2020-11-13T00:00:00.000Z
368,345,"Mission Bay, Visitor's Center - proj. of Clairemont",Mission Bay,32.788136000000000,-117.209103000000000,,San Diego,San Diego,CA,92109,San Diego,True,2019-03-15T00:00:00.000Z,ns,,A,ns,ns,2018,2019-03-15T00:00:00.000Z
369,417,"Mission Bay, Wildlife Refuge adjacent to swim area",,118.000000000000000,800.000000000000000,,,San Diego,CA,,San Diego,False,,,,,,,,
370,340,"Mission Bay, Wildlife Refuge, near fence - proj. of Lamont St.",Mission Bay,32.788300000000000,-117.231700000000000,,San Diego,San Diego,CA,92109,San Diego,True,2019-03-15T00:00:00.000Z,ns,,A,ns,ns,2018,2019-03-15T00:00:00.000Z
371,419,"Mission Bay, swim area at Visitor's Center",,118.000000000000000,800.000000000000000,,,San Diego,CA,,San Diego,False,,,,,,,,
372,525,"Mission Beach, Belmont Park",Mission Beach,32.771330000000000,-117.253500000000000,,San Diego,San Diego,CA,92109,San Diego,True,2021-04-02T00:00:00.000Z,A+,A+,A,ns,ns,2018,2021-04-02T00:00:00.000Z
373,329,"Mission Beach, projection of Capistrano Place",,118.000000000000000,800.000000000000000,,,San Diego,CA,,San Diego,False,,,,,,,,
374,2079,Mission Creek Park at Mission Creek,,37.773774000000000,-122.393289000000000,,San Francisco,San Francisco,CA,94158,San Francisco,True,2021-04-02T00:00:00.000Z,A+,A+,,,,,2021-04-02T00:00:00.000Z
375,2071,Mitchell's Cove Beach,Mitchell's Cove Beach,36.952640000000000,-122.041218000000000,,Santa Cruz,Santa Cruz,CA,95060,Santa Cruz,True,2021-04-02T00:00:00.000Z,A+,A+,,,,,2021-04-02T00:00:00.000Z
376,225,Monarch Beach- north,Monarch Beach,33.481081000000000,-117.725639000000000,,Monarch Bay,Orange,CA,92629,Orange,True,2021-02-12T00:00:00.000Z,B,ns,,,,,2021-02-12T00:00:00.000Z
377,256,Monarch Beach- south,Monarch Beach,118.000000000000000,500.000000000000000,,,Orange,CA,,Orange,False,2019-03-15T00:00:00.000Z,ns,,,,,,2019-03-15T00:00:00.000Z
378,465,"Montara State Beach, at Martini Creek",Montara State Beach,37.552999000000000,-122.513858000000000,,Moss Beach,San Mateo,CA,94038,San Mateo,False,2019-03-15T00:00:00.000Z,ns,,C,B,ns,2018,2019-03-15T00:00:00.000Z
379,453,Monterey Municipal Beach (at the commercial wharf)*,Monterey Municipal Beach,36.601747000000000,-121.888697000000000,,Monterey,Monterey,CA,93940,Monterey,True,2020-04-17T00:00:00.000Z,D,ns,A,C,ns,2018,2020-04-17T00:00:00.000Z
380,452,Monterey State Beach,Monterey State Beach,36.612529000000000,-121.858199000000000,,Monterey,Monterey,CA,93940,Monterey,True,2019-11-22T00:00:00.000Z,A+,ns,A,A+,ns,2018,2019-11-22T00:00:00.000Z
381,538,Moonstone County Park (Little River State Beach),Moonstone County Park,41.029721000000000,-124.116009000000000,,Westhaven,Humboldt,CA,95570,Humboldt,True,2020-11-06T00:00:00.000Z,B,ns,A,F,ns,2018,2020-11-06T00:00:00.000Z
382,2074,Moran Lake Beach,Moran Lake Beach,36.956229000000000,-121.978417000000000,,Santa Cruz,Santa Cruz,CA,95062,Santa Cruz,True,2019-10-18T00:00:00.000Z,A+,ns,,,,,2019-10-18T00:00:00.000Z
383,393,"Morro Bay City Beach, 75 feet north of main parking lot",Morro Bay City Beach,35.371630560000000,-120.865994400000000,,Morro Bay,San Luis Obispo,CA,93442,San Luis Obispo,True,2021-04-02T00:00:00.000Z,A+,A+,A+,A+,A+,2018,2021-04-02T00:00:00.000Z
384,392,"Morro Bay City Beach, Morro Creek (south side)",Morro Bay City Beach,35.375994440000000,-120.865058300000000,,Morro Bay,San Luis Obispo,CA,93442,San Luis Obispo,True,2021-04-02T00:00:00.000Z,A+,A+,A,A,A,2018,2021-04-02T00:00:00.000Z
385,524,"Morro Bay City Beach, projection of Atascadero",Morro Bay City Beach,35.379144440000000,-120.865566700000000,,Morro Bay,San Luis Obispo,CA,93442,San Luis Obispo,True,2021-04-02T00:00:00.000Z,A+,A+,A,B,A,2018,2021-04-02T00:00:00.000Z
386,519,"Morro Strand State Beach, projection of Beachcomber Dr.",Morro Strand State Beach,35.398452000000000,-120.868643000000000,,Morro Bay,San Luis Obispo,CA,93442,San Luis Obispo,True,2021-04-02T00:00:00.000Z,A+,A+,A+,A+,C,2018,2021-04-02T00:00:00.000Z
387,136,Mother's Beach - Long Beach - north end,Alamitos Bay,33.758654000000000,-118.119644000000000,,Long Beach,Los Angeles,CA,90803,Los Angeles,True,2020-04-10T00:00:00.000Z,B,ns,B,F,B,2018,2020-04-10T00:00:00.000Z
388,609,Mother's Beach - Long Beach - south end,Alamitos Bay,33.757566000000000,-118.118477000000000,,Long Beach,Los Angeles -- Long Beach,CA,90803,Los Angeles -- Long Beach,False,2019-03-15T00:00:00.000Z,ns,,,,,,2019-03-15T00:00:00.000Z
389,563,"Muir Beach, Central",Muir Beach,37.859300000000000,-122.576300000000000,,,Marin,CA,,Marin,True,2020-11-06T00:00:00.000Z,A+,ns,A+,A,ns,2018,2020-11-06T00:00:00.000Z
390,562,"Muir Beach, North",Muir Beach,37.859900000000000,-122.577300000000000,,Muir Beach,Marin,CA,94965,Marin,True,2020-11-06T00:00:00.000Z,A+,ns,A,A+,ns,2018,2020-11-06T00:00:00.000Z
391,564,"Muir Beach, South",Muir Beach,37.858100000000000,-122.575000000000000,,Muir Beach,Marin,CA,94965,Marin,True,2020-11-06T00:00:00.000Z,A+,ns,A+,A,ns,2018,2020-11-06T00:00:00.000Z
392,1025,Mussel Shoals Beach - north of pier,Mussel Shoals Beach,34.356060000000000,-119.443430000000000,,,Ventura,CA,,Ventura,True,2019-03-15T00:00:00.000Z,ns,,,,,,2019-03-15T00:00:00.000Z
393,85,Mussel Shoals Beach- 100 yds. south of pier,Mussel Shoals Beach,34.355596000000000,-119.441691000000000,,San Buenaventura,Ventura,CA,93001,Ventura,False,2019-03-15T00:00:00.000Z,ns,,,,,,2019-03-15T00:00:00.000Z
394,432,Natural Bridges State Beach,Natural Bridges State Beach,36.949629000000000,-122.057829000000000,,Scotts Valley,Santa Cruz,CA,95060,Santa Cruz,True,2021-04-02T00:00:00.000Z,A+,A+,A+,A,A+,2018,2021-04-02T00:00:00.000Z
395,445,New Brighton Beach,New Brighton Beach,36.978004000000000,-121.938476000000000,,Capitola,Santa Cruz,CA,95010,Santa Cruz,True,2020-04-03T00:00:00.000Z,A,A+,A+,C,A+,2018,2020-04-03T00:00:00.000Z
396,2098,Newport Bay De Anza,Newport Bay,33.61683,-117.904,,Newport Beach,Orange,CA,92660,Orange,False,,,,,,,,
397,175,"Newport Bay, 10th Street Beach",Newport Bay,33.606310000000000,-117.912706000000000,,Newport Beach,Orange,CA,92661,Orange,True,2021-03-26T00:00:00.000Z,A+,A+,A,F,A,2018,2021-03-26T00:00:00.000Z
398,174,"Newport Bay, 15th Street Beach",Newport Bay,33.608380000000000,-117.920350000000000,,Newport Beach,Orange,CA,92661,Orange,True,2021-03-05T00:00:00.000Z,A,ns,A+,F,A,2018,2021-03-05T00:00:00.000Z
399,173,"Newport Bay, 19th Street Beach",Newport Bay,33.608980000000000,-117.925710000000000,,Newport Beach,Orange,CA,92663,Orange,True,2021-03-05T00:00:00.000Z,A+,ns,A+,F,A,2018,2021-03-05T00:00:00.000Z
400,2092,"Newport Bay, 33rd Street Beach",Newport Bay,33.61683,-117.9311667,,Newport Beach,Orange,CA,92663,Orange,False,,,,,,,,
401,169,"Newport Bay, 38th Street Beach",Newport Bay,33.618340000000000,-117.934260000000000,,Newport Beach,Orange,CA,92663,Orange,True,2021-03-26T00:00:00.000Z,A+,A+,A+,F,A,2018,2021-03-26T00:00:00.000Z
402,168,"Newport Bay, 43rd Street Beach",Newport Bay,33.620820000000000,-117.936640000000000,,Newport Beach,Orange,CA,92663,Orange,True,2021-03-05T00:00:00.000Z,A+,ns,B,F,A,2018,2021-03-05T00:00:00.000Z
403,187,"Newport Bay, Abalone Avenue Beach- Balboa Island",Newport Bay,33.604150000000000,-117.887990000000000,,Newport Beach,Orange,CA,92662,Orange,True,2021-03-26T00:00:00.000Z,A+,A+,A,F,C,2018,2021-03-26T00:00:00.000Z
404,176,"Newport Bay, Alvarado/ Bay Isle Beach",Newport Bay,33.605560000000000,-117.903700000000000,,Newport Beach,Orange,CA,92661,Orange,True,2021-03-26T00:00:00.000Z,A+,A+,A,F,B,2018,2021-03-26T00:00:00.000Z
405,185,"Newport Bay, Bayshore Beach",Newport Bay,33.612590000000000,-117.907580000000000,,Newport Beach,Orange,CA,92663,Orange,True,2021-03-26T00:00:00.000Z,A+,A+,A+,F,A,2018,2021-03-26T00:00:00.000Z
406,178,"Newport Bay, Garnet Avenue Beach- Balboa Island",Newport Bay,33.606390000000000,-117.899390000000000,,Newport Beach,Orange,CA,92662,Orange,True,2021-03-26T00:00:00.000Z,A+,A+,A+,F,A+,2018,2021-03-26T00:00:00.000Z
407,186,"Newport Bay, Grand Canal- Balboa Island",Newport Bay,33.605760000000000,-117.888770000000000,,Newport Beach,Orange,CA,92662,Orange,True,2021-03-05T00:00:00.000Z,A+,ns,ns,B,A,2018,2021-03-05T00:00:00.000Z
408,183,"Newport Bay, Harbor Patrol Beach at Bayside Drive",Newport Bay,33.602260000000000,-117.882800000000000,,Corona Del Mar,Orange,CA,92625,Orange,True,2021-03-19T00:00:00.000Z,A+,A+,A,F,B,2018,2021-03-19T00:00:00.000Z
409,171,"Newport Bay, Lido Yacht Club Beach- Lido Isle",Newport Bay,33.609760000000000,-117.914250000000000,,Newport Beach,Orange,CA,92663,Orange,True,2021-03-26T00:00:00.000Z,A+,A+,A,F,A,2018,2021-03-26T00:00:00.000Z
410,177,"Newport Bay, N Street Beach",Newport Bay,33.598750000000000,-117.882570000000000,,Newport Beach,Orange,CA,92661,Orange,True,2021-03-26T00:00:00.000Z,A+,A+,A+,F,A,2018,2021-03-26T00:00:00.000Z
411,2099,"Newport Bay, Newport Blvd Bridge",Newport Bay,33.6299,-117.9511391,,Newport Beach,Orange,CA,92663,Orange,False,,,,,,,,
412,167,"Newport Bay, Newport Dunes-East",Newport Bay,33.615950000000000,-117.892150000000000,,Newport Beach,Orange,CA,92660,Orange,True,2021-03-26T00:00:00.000Z,B,F,A+,F,A+,2018,2021-03-26T00:00:00.000Z
413,164,"Newport Bay, Newport Dunes-Middle",Newport Bay,33.615150000000000,-117.893760000000000,,Newport Beach,Orange,CA,92660,Orange,True,2021-03-26T00:00:00.000Z,A+,A+,A+,F,A+,2018,2021-03-26T00:00:00.000Z
414,166,"Newport Bay, Newport Dunes-North",Newport Bay,33.617860000000000,-117.891940000000000,,Newport Beach,Orange,CA,92660,Orange,True,2021-03-05T00:00:00.000Z,A,ns,A,F,A,2018,2021-03-05T00:00:00.000Z
415,165,"Newport Bay, Newport Dunes-West",Newport Bay,33.615607000000000,-117.895088000000000,,Newport Beach,Orange,CA,92660,Orange,True,2021-03-26T00:00:00.000Z,A+,A+,A,F,A,2018,2021-03-26T00:00:00.000Z
416,2096,"Newport Bay, North Star Beach",Newport Bay,33.6255,-117.8933333,,Newport Beach,Orange,CA,92660,Orange,False,,,,,,,,
417,182,"Newport Bay, Onyx Avenue Beach- Balboa Island",Newport Bay,33.608710000000000,-117.890530000000000,,Newport Beach,Orange,CA,92662,Orange,True,2021-03-05T00:00:00.000Z,A+,ns,A+,F,C,2018,2021-03-05T00:00:00.000Z
418,181,"Newport Bay, Park Avenue Beach- Balboa Island",Newport Bay,33.605780000000000,-117.886000000000000,,Newport Beach,Orange,CA,92662,Orange,True,2021-03-26T00:00:00.000Z,A+,A+,A,F,A+,2018,2021-03-26T00:00:00.000Z
419,2097,"Newport Bay, Promontory Point",Newport Bay,33.61316,-117.8991167,,Newport Beach,Orange,CA,92660,Orange,False,,,,,,,,
420,2093,"Newport Bay, Rhine Channel",Newport Bay,33.615,-117.9268333,,Newport Beach,Orange,CA,92660,Orange,False,,,,,,,,
421,184,"Newport Bay, Rocky Point Beach",Newport Bay,33.594890000000000,-117.878130000000000,,Corona Del Mar,Orange,CA,92625,Orange,True,2019-10-11T00:00:00.000Z,A,ns,A+,F,A,2018,2019-10-11T00:00:00.000Z
422,179,"Newport Bay, Ruby Avenue Beach- Balboa Island",Newport Bay,33.608330000000000,-117.894930000000000,,Newport Beach,Orange,CA,92662,Orange,True,2021-03-26T00:00:00.000Z,A+,A+,A+,F,A,2018,2021-03-26T00:00:00.000Z
423,180,"Newport Bay, Sapphire Avenue Beach- Balboa Island",Newport Bay,33.604167000000000,-117.893333000000000,,Newport Beach,Orange,CA,92662,Orange,True,2021-03-26T00:00:00.000Z,A+,A+,A,F,A,2018,2021-03-26T00:00:00.000Z
424,2095,"Newport Bay, Ski Zone",Newport Bay,33.6395,-117.8863333,,Newport Beach,Orange,CA,92660,Orange,False,,,,,,,,
425,2094,"Newport Bay, Vaughns Launch",Newport Bay,33.63078,-117.88566,,Newport Beach,Orange,CA,92660,Orange,False,,,,,,,,
426,172,"Newport Bay, Via Genoa Beach- Lido Isle",Newport Bay,33.614950000000000,-117.919570000000000,,Newport Beach,Orange,CA,92663,Orange,True,2021-03-26T00:00:00.000Z,B,A+,A,F,B,2018,2021-03-26T00:00:00.000Z
427,509,"Newport Beach - Newport Pier, upcoast side",Newport Beach,33.609590000000000,-117.930940000000000,,Newport Beach,Orange,CA,92663,Orange,False,2019-03-15T00:00:00.000Z,ns,,,,,,2019-03-15T00:00:00.000Z
428,154,Newport Beach- projection of 38th Street,Newport Beach,33.616600000000000,-117.937000000000000,,Newport Beach,Orange,CA,92663,Orange,True,2021-04-02T00:00:00.000Z,A+,A+,A,F,A,2018,2021-04-02T00:00:00.000Z
429,153,Newport Beach- projection of 52nd/53rd Street,Newport Beach,33.622048000000000,-117.944442000000000,,Newport Beach,Orange,CA,92663,Orange,True,2021-04-02T00:00:00.000Z,A+,A+,A+,F,A+,2018,2021-04-02T00:00:00.000Z
430,152,Newport Beach- projection of Orange Street,Newport Beach,33.626291000000000,-117.953996000000000,,Newport Beach,Orange,CA,92663,Orange,True,2021-03-26T00:00:00.000Z,A+,A+,,,,,2021-03-26T00:00:00.000Z
431,2101,"Newport Slough, Grant Street",Newport Slough,33.62733,-117.947252,,Newport Beach,Orange,CA,92663,Orange,False,,,,,,,,
432,2100,"Newport Slough, Lancaster/62nd Street",Newport Slough,33.62,-117.9286667,,Newport Beach,Orange,CA,92663,Orange,False,,,,,,,,
433,63,Nicholas Beach at San Nicholas Canyon Creek mouth,Nicholas Beach,34.041694000000000,-118.915669000000000,,Malibu,Los Angeles,CA,90265,Los Angeles,True,2021-04-02T00:00:00.000Z,A+,ns,,,,,2021-04-02T00:00:00.000Z
434,217,North Aliso County Beach,North Aliso County Beach,33.511620000000000,-117.754630000000000,,Laguna Niguel,Orange,CA,92651,Orange,True,2021-03-19T00:00:00.000Z,A+,ns,A+,A+,A+,2018,2021-03-19T00:00:00.000Z
435,606,North Westchester Storm Drain at Dockweiler State Beach,Dockweiler State Beach,33.944358000000000,-118.445158000000000,,Playa Del Rey,Los Angeles -- LA City,CA,90293,Los Angeles -- LA City,True,2021-04-02T00:00:00.000Z,A+,D,A,D,A,2018,2021-04-02T00:00:00.000Z
436,1048,North beach Pico drain (Point Zero),San Clemente,33.431470000000000,-117.632870000000000,,,Orange,CA,,Orange,True,2021-02-12T00:00:00.000Z,A+,ns,,,,,2021-02-12T00:00:00.000Z
437,528,"Ocean Beach Pier, northside at Newport Ave.",Ocean Beach,32.748653000000000,-117.253271000000000,,San Diego,San Diego,CA,92107,San Diego,True,2021-04-02T00:00:00.000Z,A+,A+,A+,ns,ns,2018,2021-04-02T00:00:00.000Z
438,68,Ocean Beach at Santa Ynez River,Ocean Beach,34.691556000000000,-120.604580000000000,,Lompoc,Santa Barbara,CA,93437,Santa Barbara,False,2019-03-15T00:00:00.000Z,ns,,,,,,2019-03-15T00:00:00.000Z
439,355,"Ocean Beach, Ocean Pier (proj. of Narragansett Ave.)",Ocean Beach,32.746767000000000,-117.254809000000000,,San Diego,San Diego,CA,92107,San Diego,True,2021-04-02T00:00:00.000Z,A+,A+,A,ns,ns,2018,2021-04-02T00:00:00.000Z
440,354,"Ocean Beach, San Diego River outlet (Dog Beach)",Ocean Beach,32.755674000000000,-117.253066000000000,,San Diego,San Diego,CA,92107,San Diego,True,2021-04-02T00:00:00.000Z,A,A+,A,ns,ns,2018,2021-04-02T00:00:00.000Z
441,527,"Ocean Beach, Stub Jetty",Ocean Beach,32.753935000000000,-117.252845000000000,,San Diego,San Diego,CA,92107,San Diego,True,2021-04-02T00:00:00.000Z,A+,A+,A,ns,ns,2018,2021-04-02T00:00:00.000Z
442,500,"Ocean Beach, projection of Balboa Ave.",Ocean Beach,37.774963000000000,-122.513399000000000,,San Francisco,San Francisco,CA,94121,San Francisco,True,2021-04-02T00:00:00.000Z,A+,A+,A+,B,A+,2018,2021-04-02T00:00:00.000Z
443,356,"Ocean Beach, projection of Bermuda Ave.",Ocean Beach,32.737587000000000,-117.255191000000000,,San Diego,San Diego,CA,92107,San Diego,True,2021-02-26T00:00:00.000Z,A+,A+,A+,ns,ns,2018,2021-02-26T00:00:00.000Z
444,501,"Ocean Beach, projection of Lincoln Way",Ocean Beach,37.763782000000000,-122.512547000000000,,San Francisco,San Francisco,CA,94121,San Francisco,True,2021-04-02T00:00:00.000Z,A+,A+,A+,D,A+,2018,2021-04-02T00:00:00.000Z
445,502,"Ocean Beach, projection of Pacheco St.",Ocean Beach,37.749000000000000,-122.509500000000000,,San Francisco,San Francisco,CA,94116,San Francisco,True,2020-01-31T00:00:00.000Z,ns,F,ns,F,ns,2018,2020-01-31T00:00:00.000Z
446,504,"Ocean Beach, projection of Sloat Blvd.",Ocean Beach,37.735566670000000,-122.507816666000000,,San Francisco,San Francisco,CA,94116,San Francisco,True,2021-04-02T00:00:00.000Z,A+,A+,A+,C,A+,2018,2021-04-02T00:00:00.000Z
447,503,"Ocean Beach, projection of Vicente St.",Ocean Beach,37.737833330000000,-122.508066666000000,,San Francisco,San Francisco,CA,94116,San Francisco,True,2020-01-31T00:00:00.000Z,ns,F,ns,F,ns,2018,2020-01-31T00:00:00.000Z
448,27,Ocean Park Beach at Ashland Ave. drain,Ocean Park Beach,33.996500000000000,-118.485271000000000,,Santa Monica,Los Angeles -- LA City,CA,90405,Los Angeles -- LA City,True,2021-04-02T00:00:00.000Z,A,A,,,,,2021-04-02T00:00:00.000Z
449,274,"Oceanside, 500' N. of Loma Alta Creek Outlet",Oceanside,33.177134000000000,-117.370474000000000,,Oceanside,San Diego -- Oceanside,CA,92054,San Diego -- Oceanside,True,2021-04-02T00:00:00.000Z,A+,A+,A+,A+,A+,2018,2021-04-02T00:00:00.000Z
450,275,"Oceanside, Buccaneer Beach (at Loma Alta Creek)",Oceanside,33.17781407,-117.3708564,,Oceanside,San Diego -- Oceanside,CA,92054,San Diego -- Oceanside,True,2021-01-01T00:00:00.000Z,A+,ns,ns,A+,ns,2018,2021-01-01T00:00:00.000Z
451,279,"Oceanside, Buena Vista Lagoon Outlet",Oceanside,33.163852000000000,-117.359128000000000,,Carlsbad,San Diego,CA,92008,San Diego,False,2020-05-01T00:00:00.000Z,F,ns,,,,,2020-05-01T00:00:00.000Z
452,267,"Oceanside, Harbor Beach (projection of Harbor Dr.)",Oceanside,33.2044,-117.3941,,Oceanside,San Diego -- Oceanside,CA,92054,San Diego -- Oceanside,False,2021-04-02T00:00:00.000Z,A+,A+,,,,,2021-04-02T00:00:00.000Z
453,268,"Oceanside, San Luis Rey River outlet",Oceanside,33.202200000000000,-117.392290000000000,,Oceanside,San Diego -- Oceanside,CA,92054,San Diego -- Oceanside,True,2021-04-02T00:00:00.000Z,A+,A,A,ns,ns,2018,2021-04-02T00:00:00.000Z
454,277,"Oceanside, St. Malo Beach (downcoast from St. Malo Rd.)",Oceanside,33.165614,-117.359991,,Oceanside,San Diego -- Oceanside,CA,92054,San Diego -- Oceanside,True,2021-04-02T00:00:00.000Z,A+,A+,A+,B,A+,2018,2021-04-02T00:00:00.000Z
455,276,"Oceanside, projection of Cassidy St.",Oceanside,33.172717000000000,-117.366302000000000,,Oceanside,San Diego -- Oceanside,CA,92054,San Diego -- Oceanside,True,2021-04-02T00:00:00.000Z,A+,A+,A+,A,A+,2018,2021-04-02T00:00:00.000Z
456,273,"Oceanside, projection of Forster St.",Oceanside,33.182056000000000,-117.374728000000000,,Oceanside,San Diego -- Oceanside,CA,92054,San Diego -- Oceanside,True,2021-04-02T00:00:00.000Z,A+,A+,,,,,2021-04-02T00:00:00.000Z
457,270,"Oceanside, projection of Pier View Way",Oceanside,33.193627000000000,-117.384871000000000,,Oceanside,San Diego -- Oceanside,CA,92054,San Diego -- Oceanside,False,2020-05-01T00:00:00.000Z,A+,ns,,,,,2020-05-01T00:00:00.000Z
458,269,"Oceanside, projection of Surfrider Way",Oceanside,33.196500000000000,-117.386870000000000,,Oceanside,San Diego -- Oceanside,CA,92054,San Diego -- Oceanside,False,2020-11-06T00:00:00.000Z,A+,ns,,,,,2020-11-06T00:00:00.000Z
459,272,"Oceanside, projection of Tyson St.",Oceanside,33.190213000000000,-117.381859000000000,,Oceanside,San Diego -- Oceanside,CA,92054,San Diego -- Oceanside,True,2021-04-02T00:00:00.000Z,A+,A+,A+,B,A+,2018,2021-04-02T00:00:00.000Z
460,271,"Oceanside, projection of Wisconsin St.",Oceanside,33.185935000000000,-117.377842000000000,,Oceanside,San Diego,CA,92054,San Diego,False,2019-03-15T00:00:00.000Z,ns,,,,,,2019-03-15T00:00:00.000Z
461,86,Oil Piers Beach- South of Drain,Oil Piers Beach,34.350333000000000,-119.425889000000000,,Santa Barbara,Ventura,CA,93150,Ventura,True,2021-04-02T00:00:00.000Z,A+,A+,,,,,2021-04-02T00:00:00.000Z
462,955,Old Home Beach,Old Home Beach,41.057333000000000,-124.142694000000000,,Trinidad,Humboldt,CA,95570,Humboldt,False,2019-03-15T00:00:00.000Z,ns,,,,,,2019-03-15T00:00:00.000Z
463,585,Olde Port Beach (Harford Beach)north,Avila Beach,35.177088900000000,-120.749516700000000,,Shell Beach,San Luis Obispo,CA,93449,San Luis Obispo,True,2021-04-02T00:00:00.000Z,A,A+,A,B,C,2018,2021-04-02T00:00:00.000Z
464,586,Olde Port Beach (Harford Beach)south,Avila Beach,35.177472200000000,-120.748266700000000,,Shell Beach,San Luis Obispo,CA,93449,San Luis Obispo,False,2019-03-15T00:00:00.000Z,ns,,,,,,2019-03-15T00:00:00.000Z
465,122,Ormond Beach - J Street Drain,Ormond Beach,34.137953000000000,-119.188234000000000,,Port Hueneme,Ventura,CA,93041,Ventura,True,2021-04-02T00:00:00.000Z,A+,A+,,,,,2021-04-02T00:00:00.000Z
466,124,Ormond Beach- Arnold Road,Ormond Beach,34.118840000000000,-119.160075000000000,,Ventura,Ventura,CA,93006,Ventura,True,2021-01-08T00:00:00.000Z,A+,A+,A+,A,A,2018,2021-01-08T00:00:00.000Z
467,123,Ormond Beach- Industrial Drain,Ormond Beach,34.135497000000000,-119.183862000000000,,Port Hueneme,Ventura,CA,93041,Ventura,True,2021-04-02T00:00:00.000Z,A+,ns,A+,A,A,2018,2021-04-02T00:00:00.000Z
468,113,Oxnard Bch. Park - Falkirk Avenue,Oxnard Beach Park,34.180175000000000,-119.239554000000000,,Oxnard,Ventura,CA,93035,Ventura,True,2020-11-06T00:00:00.000Z,A+,ns,A+,A+,ns,2018,2020-11-06T00:00:00.000Z
469,110,Oxnard Beach - 5th Street,Oxnard Beach,34.197725000000000,-119.249292000000000,,Oxnard,Ventura,CA,93035,Ventura,True,2020-11-06T00:00:00.000Z,A+,ns,A+,A+,ns,2018,2020-11-06T00:00:00.000Z
470,112,Oxnard Beach - Amalfi Way (south of drain),Oxnard Beach,34.184327000000000,-119.242107000000000,,Oxnard,Ventura,CA,93035,Ventura,False,2019-03-15T00:00:00.000Z,ns,,,,,,2019-03-15T00:00:00.000Z
471,262,Oxnard Beach - Channel Way (south of drain),Oxnard Beach,34.195057000000000,-119.247927000000000,,Oxnard,Ventura,CA,93035,Ventura,False,2019-03-15T00:00:00.000Z,ns,,,,,,2019-03-15T00:00:00.000Z
472,111,Oxnard Beach - Outrigger Way,Oxnard Beach,34.190130000000000,-119.245227000000000,,Oxnard,Ventura,CA,93035,Ventura,True,2020-11-06T00:00:00.000Z,A+,ns,A+,A+,ns,2018,2020-11-06T00:00:00.000Z
473,114,Oxnard Beach Park - Starfish Drive,Oxnard Beach Park,34.175666000000000,-119.236910000000000,,Oxnard,Ventura,CA,93035,Ventura,True,2020-11-06T00:00:00.000Z,A+,ns,A+,A+,ns,2018,2020-11-06T00:00:00.000Z
474,632,Oyster Point,Oyster Point,37.664077000000000,-122.383330000000000,,South San Francisco,San Mateo,CA,94080,San Mateo,False,2021-02-26T00:00:00.000Z,A+,C,A,D,ns,2018,2021-02-26T00:00:00.000Z
475,327,"Pacific Beach, Crystal Pier (projection of Garnet)",Pacific Beach,32.795000000000000,-117.257000000000000,,San Diego,San Diego,CA,92109,San Diego,False,2019-03-15T00:00:00.000Z,ns,,,,,,2019-03-15T00:00:00.000Z
476,325,"Pacific Beach, P.B. Point (100 yds. downcoast of Linda Way)",Pacific Beach,32.807720000000000,-117.266220000000000,,San Diego,San Diego,CA,92109,San Diego,True,2019-03-15T00:00:00.000Z,ns,,A,ns,ns,2018,2019-03-15T00:00:00.000Z
477,382,"Pacific Beach, P.B. Point (projection of Linda Way)",,118.000000000000000,800.000000000000000,,,San Diego,CA,,San Diego,False,,,,,,,,
478,326,"Pacific Beach, Tourmaline Surf Park (proj. of Tourmaline St.)",Pacific Beach,32.805170000000000,-117.262759000000000,,San Diego,San Diego,CA,92109,San Diego,True,2021-04-02T00:00:00.000Z,A+,ns,A+,ns,ns,2018,2021-04-02T00:00:00.000Z
479,328,"Pacific Beach, projection of Grand Av.",Pacific Beach,32.794510000000000,-117.257010000000000,,San Diego,San Diego,CA,92109,San Diego,False,2021-02-19T00:00:00.000Z,A+,A+,A+,ns,ns,2018,2021-02-19T00:00:00.000Z
480,451,Palm/Pajaro Dunes Beach,Palm/Pajaro Dunes Beach,36.851804000000000,-121.811799000000000,,La Selva Beach,Santa Cruz,CA,95076,Santa Cruz,True,2019-09-06T00:00:00.000Z,B,ns,ns,A+,ns,2018,2019-09-06T00:00:00.000Z
481,53,"Palos Verdes (Bluff) Cove, Palos Verdes Estates",Bluff Cove,33.792902000000000,-118.407004000000000,,Palos Verdes Est,Los Angeles -- LA Sanitation,CA,90274,Los Angeles -- LA Sanitation,True,2021-04-02T00:00:00.000Z,A+,A+,,,,,2021-04-02T00:00:00.000Z
